,Unnamed: 0,subject,lap,start_time,straight,roundabout_entry,roundabout_exit,zebra_crossing,left_turn,u_turn,bypass_dummy,car,pedestrian,traffic_light,narrow_road,dummy,bend,habituation,traffic,hurry,frustration,surprise,risk_outcome,risk_source_env,risk_source_other_usr,risk_source_driver,risk_source_crash,risk_evaluation,violation_no,violation_roadside_invasion,violation_give_the_way,violation_road_signs,violation_heavy_braking,violation_roadside_exit,violation_slowdown,emotion_na,emotion_neutral,emotion_surprise,emotion_anger,emotion_boredom,emotion_fear,emotion_fun,gaze_na,gaze_complete_expl,gaze_partial_expl,gaze_poor_expl,distraction_na,distraction_no,distraction_reduced_attention,distraction_speaking,max_speed,avg_speed,std_speed,yaw,yaw_rate,roll,roll_rate,pitch,pitch_rate,lat_acce,long_acce,vert_acce,avg_acce_pedal_pos,std_acce_pedal_pos,avg_steer_angle,std_steer_angle
440,440,B570F8,1,13,1,0,0,1,0,0,0,0,0,0,0,0,0,2,2,2,2,2,1,0,0,0,0,0,1,0,0,0,0,0,0,0,1,0,0,0,0,0,0,1,0,0,0,1,0,0,8.91945,8.10395,1.05702,0.00865,0.01021,0.00688,0.12765,-0.00661,-0.11375,-0.10212,-0.22338,9.65984,11.04574,8.23303,6.38159,23.58079
441,441,B570F8,1,30,0,1,0,1,0,0,0,0,0,0,0,0,0,2,2,2,2,2,1,0,0,0,0,0,1,0,0,0,0,0,0,0,1,0,0,0,0,0,0,1,0,0,0,1,0,0,5.14722,3.78356,0.72964,0.08799,0.06177,0.00921,0.11395,-0.00591,-0.084,0.30594,-0.32807,9.64495,3.3991,3.74449,47.66855,155.67476
442,442,B570F8,1,38,0,0,1,1,0,0,0,0,0,0,0,0,0,2,2,2,2,2,1,0,0,0,0,0,1,0,0,0,0,0,0,0,1,0,0,0,0,0,0,1,0,0,0,1,0,0,4.16111,3.63969,0.10454,0.30886,-0.19968,0.00425,0.06409,-7e-05,-0.15134,1.3063,-0.09505,9.6367,8.2225,7.73624,196.08679,232.03652
443,443,B570F8,1,43,1,0,0,0,0,0,0,0,0,0,0,0,0,2,2,2,2,2,1,0,0,0,0,0,1,0,0,0,0,0,0,0,1,0,0,0,0,0,0,1,0,0,0,1,0,0,8.9,5.96852,1.26325,-0.02102,0.01633,0.00665,0.07749,-0.00617,-0.15555,0.07894,0.19599,9.64869,15.35645,10.6502,-11.218,77.18051
444,444,B570F8,1,60,1,0,0,0,0,1,0,0,0,0,0,0,0,2,2,2,2,2,1,0,0,0,0,0,1,0,0,0,0,0,0,0,1,0,0,0,0,0,0,1,0,0,0,1,0,0,11.08333,4.87212,3.74167,0.05958,0.0036,0.00805,0.08523,-0.00634,-0.07519,0.11447,-0.07385,9.64462,7.7724,10.97666,24.81548,250.70158
445,445,B570F8,1,109,0,0,0,0,1,0,0,0,0,0,0,0,0,2,2,2,2,2,1,0,0,0,0,0,1,0,0,0,0,0,0,0,1,0,0,0,0,0,0,1,0,0,0,1,0,0,5.78056,2.91319,1.20824,0.08515,0.00882,0.00732,0.01005,-0.01023,-0.12699,0.33129,0.29856,9.64715,9.75095,9.42525,33.80687,67.04754
446,446,B570F8,1,119,0,1,0,1,0,0,0,0,0,0,0,0,0,2,2,2,2,2,1,0,0,0,0,0,1,0,0,0,0,0,0,0,1,0,0,0,0,0,0,1,0,0,0,1,0,0,7.36944,4.22706,2.08916,-0.08135,-0.00479,0.00518,0.01968,-0.00617,-0.13734,-0.43436,-0.33659,9.66796,3.47932,7.5017,-64.42954,61.61599
447,447,B570F8,1,133,0,0,1,1,0,0,0,0,0,0,0,0,0,2,2,2,2,2,1,0,0,0,0,0,1,0,0,0,0,0,0,0,1,0,0,0,0,0,0,1,0,0,0,1,0,0,4.01667,3.21197,0.35896,-0.34477,0.00718,0.00137,0.07294,-0.00213,-0.05375,-1.10641,0.54895,9.61593,12.30544,6.45903,-246.85782,33.09407
448,448,B570F8,1,137,0,0,0,0,1,0,0,0,0,0,0,0,0,2,2,2,2,2,1,0,0,0,0,0,1,0,0,0,0,0,0,0,1,0,0,0,0,0,0,1,0,0,0,0,0,1,5.88056,4.34616,1.30631,-0.0348,0.01307,0.00701,0.08576,-0.00478,-0.01532,-0.04553,-0.07174,9.63697,8.97296,8.55311,-13.70082,87.9724
449,449,B570F8,1,160,1,0,0,1,0,0,0,0,0,1,0,0,0,2,2,2,2,2,1,0,0,0,0,0,1,0,0,0,0,0,0,0,1,0,0,0,0,0,0,1,0,0,0,1,0,0,7.51389,6.81217,0.4908,-0.00225,-0.01938,0.00556,0.10401,-0.00862,-0.14448,0.16611,0.00374,9.63639,13.88184,7.46919,1.16176,3.64439
450,450,B570F8,1,170,0,0,0,0,0,0,0,0,0,0,0,0,1,2,2,2,2,2,1,0,0,0,0,0,1,0,0,0,0,0,0,0,1,0,0,0,0,0,0,1,0,0,0,1,0,0,7.13611,5.36376,1.89157,0.13831,-0.0019,0.00812,0.00391,-0.00586,-0.14084,0.87827,-0.38301,9.66313,8.95581,10.68454,62.12737,68.46597
462,462,B570F8,3,11,1,0,0,1,0,0,0,0,0,0,0,0,0,1,2,2,2,2,1,0,0,0,0,0,1,0,0,0,0,0,0,0,1,0,0,0,0,0,0,1,0,0,0,1,0,0,10.75833,9.04483,1.45935,0.00285,-0.04683,0.00704,0.10881,-0.00679,-0.16422,-0.10962,-0.13406,9.61491,12.10579,12.55162,3.24359,14.09873
463,463,B570F8,3,27,0,1,0,1,0,0,0,0,0,0,0,0,0,1,2,2,2,2,1,0,0,0,0,0,1,0,0,0,0,0,0,0,1,0,0,0,0,0,0,1,0,0,0,1,0,0,5.06389,4.27392,0.34058,0.05274,0.05819,0.00807,0.08733,-0.00746,-0.17779,0.16875,-0.14088,9.66857,7.2537,5.97129,26.84053,115.63832
464,464,B570F8,3,34,0,0,1,1,0,0,0,0,0,0,0,0,0,1,2,2,2,2,1,0,0,0,0,0,1,0,0,0,0,0,0,0,1,0,0,0,0,0,0,1,0,0,0,1,0,0,4.85833,3.93641,0.35576,0.27603,-0.06485,0.00825,0.057,-0.0013,-0.17431,1.35297,-0.05428,9.61554,8.22023,6.44647,146.12849,224.61878
465,465,B570F8,3,41,1,0,0,0,0,0,0,0,0,0,0,0,0,1,2,2,2,2,1,0,0,0,0,0,1,0,0,0,0,0,0,0,1,0,0,0,0,0,0,1,0,0,0,1,0,0,9.36111,6.06349,1.47632,-0.01902,-0.02951,0.00566,0.07292,-0.00588,-0.16743,0.11339,0.16324,9.64796,15.14464,10.70459,-17.8414,77.79855
466,466,B570F8,3,58,1,0,0,0,0,1,0,0,0,0,0,0,0,1,2,2,2,2,1,0,0,0,0,0,1,0,0,0,0,0,0,0,1,0,0,0,0,0,0,1,0,0,0,1,0,0,11.32778,4.81985,3.78748,0.06046,-0.00401,0.00775,0.07755,-0.00679,-0.07954,0.15879,-0.17604,9.64987,8.11124,12.62212,63.50285,207.59456
467,467,B570F8,3,107,0,0,0,0,1,0,0,0,0,0,0,0,0,1,2,2,2,2,1,0,0,0,0,0,1,0,0,0,0,0,0,0,1,0,0,0,0,0,0,1,0,0,0,1,0,0,6.3,3.91165,1.60311,0.12056,0.03021,0.01029,0.00179,-0.0065,-0.12372,0.55627,0.73826,9.65208,17.3002,10.87847,64.03736,65.96255
468,468,B570F8,3,114,0,1,0,1,0,0,0,0,0,0,0,0,0,1,2,2,2,2,1,0,0,0,0,0,1,0,0,0,0,0,0,0,1,0,0,0,0,0,0,1,0,0,0,1,0,0,7.31111,5.18005,1.56962,-0.09871,-0.04117,0.00482,0.01203,-0.00575,-0.13891,-0.50011,-0.23469,9.64591,7.00584,9.22686,-62.85292,73.61008
469,469,B570F8,3,127,0,0,1,1,0,0,0,0,0,0,0,0,0,1,2,2,2,2,1,0,0,0,0,0,1,0,0,0,0,0,0,0,1,0,0,0,0,0,0,1,0,0,0,1,0,0,4.75,3.51459,0.51244,-0.34589,0.00233,0.00157,0.05732,-0.00633,-0.03693,-1.18502,0.58748,9.6036,15.99839,8.83293,-232.76082,71.6035
470,470,B570F8,3,131,0,0,0,0,1,0,0,0,0,0,0,0,0,1,2,2,2,2,1,0,0,0,0,0,1,0,0,0,0,0,0,0,1,0,0,0,0,0,0,1,0,0,0,1,0,0,6.85278,4.56073,1.34699,-0.02718,0.00379,0.00625,0.07141,-0.0053,-0.02148,0.02556,-0.02545,9.65187,8.0388,10.14295,-19.76803,82.23187
471,471,B570F8,3,153,1,0,0,1,0,0,0,0,0,1,0,0,0,1,2,2,2,2,1,0,0,0,0,0,1,0,0,0,0,0,0,0,1,0,0,0,0,0,0,1,0,0,0,1,0,0,9.97222,7.97801,1.24839,-0.0078,-0.01827,0.00722,0.10216,-0.00711,-0.14489,0.09189,0.10401,9.68771,17.3921,13.23179,-0.66022,2.02124
472,472,B570F8,3,162,0,0,0,0,0,0,0,0,0,0,0,0,1,1,2,2,2,2,1,0,0,0,0,0,1,0,0,0,0,0,0,0,1,0,0,0,0,0,0,1,0,0,0,1,0,0,9.96389,5.03441,2.75982,0.16296,-0.03383,0.00875,-0.00766,-0.00507,-0.11067,1.07513,-0.57811,9.63652,3.87149,7.70971,48.78042,57.50948
484,484,B570F8,5,8,1,0,0,1,0,0,0,0,0,0,0,0,0,1,2,1,2,2,1,0,0,0,0,0,1,0,0,0,0,0,0,0,1,0,0,0,0,0,0,1,0,0,0,1,0,0,13.45278,11.93996,1.39647,0.01679,0.0116,0.0071,0.09941,-0.0054,-0.12454,0.00535,-0.26723,9.6058,9.38732,15.70948,5.84303,21.27785
485,485,B570F8,5,20,0,1,0,1,0,0,0,0,0,0,0,0,0,1,2,1,2,2,1,0,0,0,0,0,1,0,0,0,0,0,0,0,1,0,0,0,0,0,0,1,0,0,0,1,0,0,7.125,5.87994,0.81512,0.16369,0.15947,0.01191,0.10231,-0.00362,-0.14494,0.78699,-0.57885,9.61935,3.22233,4.63282,75.35439,148.88726
486,486,B570F8,5,25,0,0,1,1,0,0,0,0,0,0,0,0,0,1,2,1,2,2,1,0,0,0,0,0,1,0,0,0,0,0,0,0,1,0,0,0,0,0,0,1,0,0,0,1,0,0,6.07778,4.66067,0.39153,0.33931,-0.25369,0.00098,0.07138,-0.00456,-0.19125,1.81599,0.23361,9.56843,17.73333,16.97097,220.98111,207.98223
487,487,B570F8,5,29,1,0,0,0,0,0,0,0,0,0,0,0,0,1,2,1,2,2,1,0,0,0,0,0,1,0,0,0,0,0,0,0,1,0,0,0,0,0,0,1,0,0,0,1,0,0,11.82778,8.36568,2.08417,-0.02702,0.03117,0.00596,0.07959,-0.00342,-0.19231,0.12299,0.30039,9.61494,25.98224,21.62557,-15.73753,85.79853
488,488,B570F8,5,40,1,0,0,0,0,1,0,0,0,0,0,0,0,1,2,1,2,2,1,0,0,0,0,0,1,0,0,0,0,0,0,0,1,0,0,0,0,0,0,1,0,0,0,1,0,0,13.73611,7.15984,4.97096,0.08215,-0.01136,0.00849,0.0836,-0.00634,-0.09504,0.24651,-0.19559,9.62594,15.97495,22.2798,44.13784,214.97546
489,489,B570F8,5,76,0,0,0,0,1,0,0,0,0,0,0,0,0,1,2,1,2,2,1,0,0,0,0,0,1,0,0,0,0,0,0,0,1,0,0,0,0,0,0,1,0,0,0,1,0,0,10.40278,6.46212,2.54527,0.14037,0.02393,0.01004,-0.00752,-0.00743,-0.17678,0.97321,1.46092,9.56673,39.00632,19.1371,53.77007,58.70517
490,490,B570F8,5,82,0,1,0,1,0,0,0,0,0,0,0,0,0,1,2,1,2,2,1,0,0,0,0,0,1,0,0,0,0,0,0,0,1,0,0,0,0,0,0,1,0,0,0,1,0,0,10.79167,7.39861,2.61948,-0.21695,-0.09663,0.00186,0.02589,-0.00218,-0.14799,-1.3478,-0.69201,9.62571,5.05363,9.9838,-105.25508,96.08512
491,491,B570F8,5,90,0,0,1,1,0,0,0,0,0,0,0,0,0,1,2,1,2,2,1,0,0,0,0,0,1,0,0,0,0,0,0,0,1,0,0,0,0,0,0,1,0,0,0,1,0,0,9.07778,6.53637,1.44391,-0.42007,0.12505,-0.00133,0.09438,-0.00226,-0.01802,-2.67825,1.68523,9.65399,64.53262,11.04688,-172.19116,80.57508
492,492,B570F8,5,93,0,0,0,0,1,0,0,0,0,0,0,0,0,1,2,1,2,2,1,0,0,0,0,0,1,0,0,0,0,0,0,0,1,0,0,0,0,0,0,1,0,0,0,1,0,0,9.89167,7.17662,1.65897,-0.05316,0.08468,0.01156,0.09124,-0.00317,0.01776,-0.36518,-0.32164,9.60399,14.07503,20.10827,-16.30954,91.99969
493,493,B570F8,5,103,1,0,0,1,0,0,0,0,0,1,0,0,0,1,2,1,1,2,1,0,0,0,0,0,1,0,0,0,0,0,0,0,1,0,0,0,0,0,0,1,0,0,0,1,0,0,15.71667,12.16402,2.57676,0.03678,-0.06818,0.00364,0.10656,-0.00324,-0.13054,0.5389,0.96422,9.59446,51.85984,34.57365,13.20231,37.66573
494,494,B570F8,5,111,0,0,0,0,0,0,0,0,0,0,0,0,1,1,2,1,2,2,1,0,0,0,0,0,1,0,0,0,0,0,0,0,1,0,0,0,0,0,0,1,0,0,0,1,0,0,14.91667,7.85349,3.56804,0.24104,0.0173,0.00843,-0.03581,-0.00182,-0.07761,2.3141,-1.42225,9.72916,7.14345,15.0988,77.05171,68.45127
506,506,B570F8,7,12,1,0,0,1,0,0,0,0,0,0,0,0,0,1,2,2,2,1,1,0,0,0,0,0,1,0,0,0,0,0,0,0,1,0,0,0,0,0,0,1,0,0,0,1,0,0,12.63333,11.55568,1.40117,0.01388,-0.00485,0.0071,0.11192,-0.00644,-0.14153,-0.01103,-0.37033,9.66111,13.72666,13.94501,1.62947,3.79347
507,507,B570F8,7,24,0,1,0,1,0,0,0,0,0,0,0,0,0,1,2,2,2,1,1,0,0,0,0,0,1,0,0,0,0,0,0,0,1,0,0,0,0,0,0,1,0,0,0,1,0,0,8.19444,5.40824,1.04539,0.15188,0.1121,0.01047,0.10716,-0.00523,-0.16605,0.63938,-0.40427,9.64609,6.03866,7.65518,43.2321,118.35308
508,508,B570F8,7,30,0,0,1,1,0,0,0,0,0,0,0,0,0,1,2,2,2,1,1,0,0,0,0,0,1,0,0,0,0,0,0,0,1,0,0,0,0,0,0,1,0,0,0,1,0,0,4.68056,4.28991,0.11822,0.31874,-0.25649,0.00364,0.00768,0.00368,-0.20151,1.58872,-0.09351,9.52774,14.06825,15.12927,276.83271,221.67563
509,509,B570F8,7,34,1,0,0,0,0,0,0,0,0,0,0,1,0,1,2,2,2,1,2,0,0,1,0,1,0,0,0,0,1,0,0,0,1,0,0,0,0,0,0,1,0,0,0,1,0,0,9.06389,5.68274,2.34112,-0.01664,0.00303,0.00591,0.04602,-0.00624,-0.14013,0.12843,-0.26366,9.67404,13.82048,12.32434,-13.82734,77.11848
510,510,B570F8,7,52,1,0,0,0,0,1,0,0,0,0,0,0,0,1,2,2,2,1,1,0,0,0,0,0,1,0,0,0,0,0,0,0,1,0,0,0,0,0,0,1,0,0,0,1,0,0,10.56944,6.15343,2.73368,0.05776,0.00173,0.00757,0.0595,-0.00667,-0.08585,0.11298,-0.01142,9.63789,12.40775,14.69538,9.57638,118.01787
511,511,B570F8,7,102,0,0,0,0,1,0,0,0,0,0,0,0,0,1,2,2,2,1,1,0,0,0,0,0,1,0,0,0,0,0,0,0,1,0,0,0,0,0,0,1,0,0,0,1,0,0,8.28889,5.77382,1.62839,0.12593,-0.03608,0.00909,-0.00286,-0.00966,-0.14438,0.73014,0.8755,9.61588,24.10542,12.71723,53.81682,51.25946
512,512,B570F8,7,109,0,1,0,1,0,0,0,0,0,0,0,0,0,1,2,2,2,1,1,0,0,0,0,0,1,0,0,0,0,0,0,0,1,0,0,0,0,0,0,1,0,0,0,1,0,0,8.78611,6.51753,1.73717,-0.17706,-0.09337,0.00339,0.01263,-0.00438,-0.15478,-1.08212,-0.56997,9.70171,6.84556,7.68903,-83.5622,81.91278
513,513,B570F8,7,118,0,0,1,1,0,0,0,0,0,0,0,0,0,1,2,2,2,1,1,0,0,0,0,0,1,0,0,0,0,0,0,0,1,0,0,0,0,0,0,1,0,0,0,1,0,0,5.92778,4.77642,0.58105,-0.47455,0.03835,-0.0046,0.08482,0.00075,-0.03096,-2.22646,1.17868,9.54305,39.6406,9.02015,-239.00526,56.85076
514,514,B570F8,7,120,0,0,0,0,1,0,0,0,0,0,0,0,0,1,2,2,2,1,1,0,0,0,0,0,1,0,0,0,0,0,0,0,1,0,0,0,0,0,0,1,0,0,0,1,0,0,8.75278,5.80471,1.91539,-0.04647,0.01438,0.00747,0.0715,-0.0042,0.00122,-0.34801,-0.1689,9.65018,11.51333,14.34584,-5.33227,89.01562
515,515,B570F8,7,136,1,0,0,1,0,0,0,0,0,1,0,0,0,1,2,2,2,1,1,0,0,0,0,0,1,0,0,0,0,0,0,0,1,0,0,0,0,0,0,1,0,0,0,1,0,0,13.04167,9.66523,2.24341,-0.00285,0.04464,0.0048,0.09421,-0.00812,-0.13115,0.17007,1.05171,9.60071,34.68913,23.62646,1.47686,6.35481
516,516,B570F8,7,144,0,0,0,0,0,0,0,0,0,0,0,0,1,1,2,2,2,1,1,0,0,0,0,0,1,0,0,0,0,0,0,0,1,0,0,0,0,0,0,1,0,0,0,1,0,0,12.99167,6.18861,3.60784,0.17813,0.02476,0.00794,-0.00238,-0.00359,-0.09476,1.40441,-0.89894,9.58414,7.49,11.67936,67.2982,68.03761
176,176,2268A5,1,12,1,0,0,1,0,0,0,0,0,0,0,0,0,2,2,2,2,2,1,0,0,0,0,0,1,0,0,0,0,0,0,0,1,0,0,0,0,0,0,1,0,0,0,1,0,0,14.61944,12.97983,1.23503,0.00692,-0.01701,0.00065,-0.04652,0.00299,-0.03675,-0.22467,0.15338,9.66657,17.01935,18.46664,1.24585,7.09126
177,177,2268A5,1,23,0,1,0,1,0,0,0,0,0,0,0,0,0,2,2,2,2,2,1,0,0,0,0,0,1,0,0,0,0,0,0,0,1,0,0,0,0,0,0,1,0,0,0,1,0,0,9.59444,7.07045,1.47626,0.09573,0.09576,0.00318,-0.0476,0.00253,0.02899,0.58473,-0.91756,9.6675,0.31512,1.13414,32.54883,103.04693
178,178,2268A5,1,28,0,0,1,1,0,0,0,0,0,0,0,0,0,2,2,2,2,2,1,0,0,0,0,0,1,0,0,0,0,0,0,0,1,0,0,0,0,0,0,1,0,0,0,1,0,0,5.88333,4.96762,0.42713,0.55451,-0.26479,-0.00028,0.08603,0.01381,0.03477,2.78416,0.19934,9.64882,13.30192,3.772,269.28424,152.45609
179,179,2268A5,1,32,1,0,0,0,0,0,0,0,0,0,0,0,0,2,2,2,2,2,1,0,0,0,0,0,1,0,0,0,0,0,0,0,1,0,0,0,0,0,0,1,0,0,0,1,0,0,10.76111,8.75076,1.27635,-0.0396,0.03425,-0.0011,0.10387,0.00344,0.03993,-0.33446,0.09289,9.64958,17.2836,13.33919,-11.99186,76.16853
180,180,2268A5,1,43,1,0,0,0,0,1,0,0,0,0,0,0,0,2,2,2,2,2,1,0,0,0,0,0,1,0,0,0,0,0,0,0,1,0,0,0,0,0,0,1,0,0,0,0,0,1,13.75,7.17186,4.47729,0.09164,-0.00073,0.00093,0.02708,0.00275,-0.00273,0.10995,-0.07207,9.67455,13.8457,17.62663,31.58651,205.69287
181,181,2268A5,1,78,0,0,0,0,1,0,0,0,0,0,0,0,0,2,2,2,2,2,1,0,0,0,0,0,1,0,0,0,0,0,0,0,1,0,0,0,0,0,0,1,0,0,0,1,0,0,8.85,6.51461,1.39841,0.13317,-0.0799,0.00132,0.00821,-0.00139,-0.02059,0.65979,0.43633,9.64831,17.96049,12.38123,53.04305,58.16126
182,182,2268A5,1,85,0,1,0,1,0,0,0,0,0,0,0,0,0,2,2,2,2,2,1,0,0,0,0,0,1,0,0,0,0,0,0,0,1,0,0,0,0,0,0,1,0,0,0,1,0,0,9.56667,7.92151,1.24868,-0.20963,-0.08449,-0.00434,-0.01596,0.00689,-0.01683,-1.78633,-0.24638,9.68329,8.52478,9.34,-80.82497,83.64633
183,183,2268A5,1,92,0,0,1,1,0,0,0,0,0,0,0,0,0,2,2,2,2,2,1,0,0,0,0,0,1,0,0,0,0,0,0,0,1,0,0,0,0,0,0,1,0,0,0,1,0,0,7.41389,6.31742,0.51145,-0.56893,0.12844,-0.00868,-0.07822,0.01101,-0.07029,-3.85287,1.03991,9.53439,28.77297,6.56218,-222.35428,43.68407
184,184,2268A5,1,94,0,0,0,0,1,0,0,0,0,0,0,0,0,2,2,2,2,2,1,0,0,0,0,0,1,0,0,0,0,0,0,0,1,0,0,0,0,0,0,1,0,0,0,1,0,0,10.21389,8.0038,0.98673,-0.0391,0.02984,0.00217,-0.01681,0.00559,-0.13594,-0.25796,0.24136,9.6433,16.962,15.01351,-15.27974,91.87895
185,185,2268A5,1,106,1,0,0,1,0,0,0,0,0,1,0,0,0,2,2,2,2,2,1,0,0,0,0,0,1,0,0,0,0,0,0,0,1,0,0,0,0,0,0,1,0,0,0,1,0,0,14.38333,12.79338,1.34955,-0.001,0.00355,-0.00267,-0.02789,0.00389,-0.14879,0.00732,0.77883,9.69241,27.96744,19.11261,-0.39828,3.21208
186,186,2268A5,1,112,0,0,0,0,0,0,0,0,0,0,0,0,1,2,2,2,2,2,1,0,0,0,0,0,1,0,0,0,0,0,0,0,1,0,0,0,0,0,0,1,0,0,0,1,0,0,14.18889,6.5167,4.15752,0.24635,0.0092,0.00126,0.01931,0.00635,0.00274,1.84291,-1.19802,9.62673,3.96962,5.05163,85.15666,76.13775
198,198,2268A5,3,10,1,0,0,1,0,0,0,0,0,0,0,0,0,1,2,2,2,2,1,0,0,0,0,0,1,0,0,0,0,0,0,0,1,0,0,0,0,0,0,1,0,0,0,1,0,0,15.48056,14.01513,1.09831,0.00619,0.06313,0.00083,-0.03033,0.00317,-0.06865,-0.23318,-0.32324,9.79994,18.96183,20.74951,0.00316,6.10655
199,199,2268A5,3,20,0,1,0,1,0,0,0,0,0,0,0,0,0,1,2,2,2,2,1,0,0,0,0,0,1,0,0,0,0,0,0,0,1,0,0,0,0,0,0,1,0,0,0,1,0,0,10.80833,7.52798,1.75893,0.15255,0.20285,0.00479,-0.04311,0.00484,0.02228,1.01857,-1.35224,9.67566,0.32803,1.0887,54.76052,119.08258
200,200,2268A5,3,25,0,0,1,1,0,0,0,0,0,0,0,0,0,1,2,2,2,2,1,0,0,0,0,0,1,0,0,0,0,0,0,0,1,0,0,0,0,0,0,1,0,0,0,1,0,0,6.30278,5.32938,0.41437,0.43907,-0.31081,-0.00314,0.14204,0.00863,0.07564,2.32726,0.11301,9.57718,13.98717,3.20774,204.7185,200.76926
201,201,2268A5,3,29,1,0,0,0,0,0,0,0,0,0,0,0,0,1,2,2,2,2,1,0,0,0,0,0,1,0,0,0,0,0,0,0,1,0,0,0,0,0,0,1,0,0,0,1,0,0,10.39722,7.67944,1.67129,-0.02215,0.01581,-0.0015,0.18361,0.00465,0.09133,0.01043,0.11359,9.71868,15.47855,10.83535,-16.12759,87.6278
202,202,2268A5,3,41,1,0,0,0,0,1,0,0,0,0,0,0,0,1,2,2,2,2,1,0,0,0,0,0,1,0,0,0,0,0,0,0,1,0,0,0,0,0,0,1,0,0,0,1,0,0,12.79722,6.52068,4.12897,0.08322,-0.00209,0.00226,0.03215,0.00193,0.00721,0.0531,0.02987,9.67075,13.02648,14.20142,36.79853,211.10298
203,203,2268A5,3,80,0,0,0,0,1,0,0,0,0,0,0,0,0,1,2,2,2,2,1,0,0,0,0,0,1,0,0,0,0,0,0,0,1,0,0,0,0,0,0,1,0,0,0,1,0,0,9.51111,6.588,1.27087,0.14561,0.01876,0.0022,0.00777,-0.00178,-0.0123,0.73147,0.67246,9.68176,24.54376,16.83969,57.77779,62.34134
204,204,2268A5,3,86,0,1,0,1,0,0,0,0,0,0,0,0,0,1,2,2,2,2,1,0,0,0,0,0,1,0,0,0,0,0,0,0,1,0,0,0,0,0,0,1,0,0,0,1,0,0,9.78611,8.18465,1.50823,-0.15527,-0.10637,-0.00405,-0.02705,0.00496,-0.0118,-1.35107,-0.53188,9.69614,6.20051,7.97109,-62.59485,72.02691
205,205,2268A5,3,93,0,0,1,1,0,0,0,0,0,0,0,0,0,1,2,2,2,2,1,0,0,0,0,0,1,0,0,0,0,0,0,0,1,0,0,0,0,0,0,1,0,0,0,1,0,0,7.05,5.92586,0.47803,-0.60703,0.03344,-0.01147,-0.05542,0.01392,-0.07135,-3.85596,0.89876,9.54418,32.99264,12.24842,-251.9734,29.7893
206,206,2268A5,3,95,0,0,0,0,1,0,0,0,0,0,0,0,0,1,2,2,2,2,1,0,0,0,0,0,1,0,0,0,0,0,0,0,1,0,0,0,0,0,0,1,0,0,0,1,0,0,10.40278,7.71674,1.46938,-0.06636,0.08521,0.00147,0.0063,0.00506,-0.1302,-0.51407,0.28755,9.66675,17.26968,15.62853,-25.96061,101.50477
207,207,2268A5,3,107,1,0,0,1,0,0,0,0,0,1,0,0,0,1,2,2,2,2,1,0,0,0,0,0,1,0,0,0,0,0,0,0,1,0,0,0,0,0,0,1,0,0,0,1,0,0,13.86667,11.88828,1.58513,0.01006,-0.11779,-0.001,-0.02216,0.00439,-0.15033,0.14499,0.53716,9.61147,27.367,26.17136,1.71571,9.95957
208,208,2268A5,3,114,0,0,0,0,0,0,0,0,0,0,0,0,1,1,2,2,2,2,1,0,0,0,0,0,1,0,0,0,0,0,0,0,1,0,0,0,0,0,0,1,0,0,0,1,0,0,12.42778,6.97488,2.73222,0.25943,-0.02273,0.00217,0.0006,0.00536,-0.0033,1.78756,-0.90207,9.63997,3.90244,5.97459,98.93887,68.75566
220,220,2268A5,5,7,1,0,0,1,0,0,0,0,0,0,0,0,0,1,2,1,2,2,1,0,0,0,0,0,1,0,0,0,0,0,0,0,1,0,0,0,0,0,0,1,0,0,0,1,0,0,20.51945,17.77856,2.38816,0.02902,0.08205,0.00334,-0.01196,0.0036,-0.06723,0.09395,-0.78308,9.66412,36.67194,45.33096,6.75044,16.08338
221,221,2268A5,5,15,0,1,0,1,0,0,0,0,0,0,0,0,0,1,2,1,2,2,1,0,0,0,0,0,1,0,0,0,0,0,0,0,1,0,0,0,0,0,0,1,0,0,0,1,0,0,11.49444,8.45501,1.79691,0.05524,0.08606,0.00714,-0.00344,0.0003,0.00154,0.4363,-2.01971,9.61269,2.06975,5.51157,15.05725,84.18802
222,222,2268A5,5,18,0,0,1,1,0,0,0,0,0,0,0,0,0,1,2,1,2,2,1,0,0,1,0,1,0,0,0,0,0,1,0,0,1,0,0,0,0,0,0,1,0,0,0,1,0,0,6.81111,6.12752,0.32584,0.79954,-0.12246,0.00419,0.08117,0.02752,-0.01455,5.16515,0.35486,9.47204,20.0838,4.73918,315.3827,80.70615
223,223,2268A5,5,21,1,0,0,0,0,0,0,0,0,0,0,0,0,1,2,1,2,2,1,0,0,0,0,0,1,0,0,0,0,0,0,0,1,0,0,0,0,0,0,1,0,0,0,1,0,0,14.47778,9.9262,2.34613,-0.05082,-0.05016,-0.00168,0.11174,0.00513,-0.00966,-0.28575,0.36932,9.57932,36.53546,33.64031,-20.83457,88.7538
224,224,2268A5,5,30,1,0,0,0,0,1,0,0,0,0,0,0,0,1,2,1,2,2,1,0,0,0,0,0,1,0,0,0,0,0,0,0,1,0,0,0,0,0,0,1,0,0,0,1,0,0,17.11667,9.4418,4.9976,0.11324,0.01531,0.00334,0.06491,0.00176,-0.01061,0.23999,-0.01495,9.66559,25.28924,32.71041,42.71085,178.56196
225,225,2268A5,5,58,0,0,0,0,1,0,0,0,0,0,0,0,0,1,2,1,2,2,1,0,0,0,0,0,1,0,0,0,0,0,0,0,1,0,0,0,0,0,0,1,0,0,0,1,0,0,14.30556,10.01589,1.99295,0.15306,0.08931,0.00616,0.02122,0.00331,-0.07762,1.28022,1.21379,9.68514,51.86121,41.19762,43.33797,44.51256
226,226,2268A5,5,64,0,1,0,1,0,0,0,0,0,0,0,0,0,1,2,1,2,2,1,0,0,0,0,0,1,0,0,0,0,0,0,0,1,0,0,0,0,0,0,1,0,0,0,1,0,0,14.28611,9.77473,2.52427,-0.30864,-0.19099,-0.00623,-0.00488,0.00944,-0.06318,-2.83315,-1.29674,9.51815,4.66678,7.47771,-106.71218,86.45581
227,227,2268A5,5,69,0,0,1,1,0,0,0,0,0,0,0,0,0,1,2,1,2,2,1,0,0,0,0,0,1,0,0,0,0,0,0,0,1,0,0,0,0,0,0,1,0,0,0,1,0,0,9.30556,7.92259,0.70549,-0.6067,0.12297,-0.00951,0.00264,0.02148,-0.02489,-5.12219,1.20899,9.4758,75.5963,31.49372,-203.90654,38.96983
228,228,2268A5,5,71,0,0,0,0,1,0,0,0,0,0,0,0,0,1,2,1,2,2,1,0,0,0,0,0,1,0,0,0,0,0,0,0,1,0,0,0,0,0,0,1,0,0,0,1,0,0,12.12778,9.64711,1.16305,-0.0431,0.03632,0.00649,0.00391,0.00709,-0.00787,-0.55121,0.00072,9.59675,34.22396,39.40943,-13.20039,91.46084
229,229,2268A5,5,80,1,0,0,1,0,0,0,0,0,1,0,0,0,1,2,1,1,2,1,0,0,0,0,0,1,0,0,0,0,0,0,0,1,0,0,0,0,0,0,1,0,0,0,1,0,0,18.15278,15.06316,2.12331,0.01095,-0.08747,-0.00014,0.03257,0.00691,-0.03766,0.21098,1.07993,9.51108,60.15598,41.14055,1.96352,12.26728
230,230,2268A5,5,86,0,0,0,0,0,0,0,0,0,0,0,0,1,1,2,1,2,2,1,0,0,0,0,0,1,0,0,0,0,0,0,0,1,0,0,0,0,0,0,1,0,0,0,1,0,0,15.33333,8.41332,2.66558,0.35573,0.01637,0.00394,0.07456,0.01018,-0.05746,3.46052,-1.56126,9.52838,10.03976,11.30784,110.27839,70.79106
242,242,2268A5,7,13,1,0,0,1,0,0,0,0,0,0,0,0,0,1,2,2,2,1,1,0,0,0,0,0,1,0,0,0,0,0,0,0,1,0,0,0,0,0,0,1,0,0,0,1,0,0,12.26667,11.30612,0.61463,0.01926,0.01268,0.00276,0.00978,0.00108,-0.0259,-0.07487,-0.14658,9.707,11.9197,9.65058,4.4685,14.1966
243,243,2268A5,7,26,0,1,0,1,0,0,0,0,0,0,0,0,0,1,2,2,2,1,1,0,0,0,0,0,1,0,0,0,0,0,0,0,1,0,0,0,0,0,0,1,0,0,0,1,0,0,9.61944,7.04062,1.27976,0.10271,0.16151,0.0078,0.0386,0.00385,0.01666,0.5733,-0.92973,9.68913,1.72747,2.41278,35.50583,105.10165
244,244,2268A5,7,30,0,0,1,1,0,0,0,0,0,0,0,0,0,1,2,2,2,1,1,0,0,0,0,0,1,0,0,0,0,0,0,0,1,0,0,0,0,0,0,1,0,0,0,1,0,0,5.725,5.31752,0.17422,0.71319,-0.2892,-0.00184,0.09731,0.01587,-0.03753,4.05041,-0.0143,9.55715,11.71139,2.03415,314.43445,104.7173
245,245,2268A5,7,33,1,0,0,0,0,0,0,0,0,0,0,1,0,1,2,2,2,1,1,0,0,0,0,0,1,0,0,0,0,0,0,0,1,0,0,0,0,0,0,1,0,0,0,1,0,0,10.38333,7.48656,2.23986,-0.02878,-0.02758,0.00161,0.06108,0.00288,-0.02155,-0.11952,-0.11348,9.63349,17.47522,11.45617,-16.04441,81.59282
246,246,2268A5,7,49,1,0,0,0,0,1,0,0,0,0,0,0,0,1,2,2,2,1,1,0,0,0,0,0,1,0,0,0,0,0,0,0,1,0,0,0,0,0,0,1,0,0,0,1,0,0,12.77778,6.78155,3.91011,0.09033,0.00318,0.00334,0.03269,0.00185,-0.04437,0.13604,0.14234,9.66566,15.72483,17.69196,23.76038,190.16653
247,247,2268A5,7,85,0,0,0,0,1,0,0,0,0,0,0,0,0,1,2,2,2,1,1,0,0,0,0,0,1,0,0,0,0,0,0,0,1,0,0,0,0,0,0,1,0,0,0,1,0,0,9.35,7.27003,1.16562,0.17584,0.05835,0.00543,0.03172,-0.00272,-0.03516,1.18033,0.65436,9.73111,24.66856,10.05931,71.35412,49.15031
248,248,2268A5,7,90,0,1,0,1,0,0,0,0,0,0,0,0,0,1,2,2,2,1,1,0,0,0,0,0,1,0,0,0,0,0,0,0,1,0,0,0,0,0,0,1,0,0,0,1,0,0,10.11111,7.19892,2.18037,-0.11327,-0.06643,-0.00309,0.01725,0.0027,-0.02901,-0.8449,-0.61358,9.65352,5.71417,8.89425,-60.98738,76.76349
249,249,2268A5,7,98,0,0,1,1,0,0,0,0,0,0,0,0,0,1,2,2,2,1,1,0,0,0,0,0,1,0,0,0,0,0,0,0,1,0,0,0,0,0,0,1,0,0,0,1,0,0,5.45278,4.37837,0.55234,-0.40756,-0.05974,-0.00393,-0.00945,0.00624,-0.02629,-2.00706,0.89102,9.65953,17.95939,3.28675,-219.89352,36.67412
250,250,2268A5,7,101,0,0,0,0,1,0,0,0,0,0,0,0,0,1,2,2,2,1,1,0,0,0,0,0,1,0,0,0,0,0,0,0,1,0,0,0,0,0,0,1,0,0,0,1,0,0,8.68611,7.24205,0.8679,-0.07097,0.05123,0.00264,-0.02788,0.0041,-0.07763,-0.61757,0.21282,9.62045,13.49645,11.6258,-23.62027,105.77467
251,251,2268A5,7,114,1,0,0,1,0,0,0,0,0,1,0,0,0,1,2,2,2,1,1,0,0,0,0,0,1,0,0,0,0,0,0,0,1,0,0,0,0,0,0,1,0,0,0,1,0,0,11.93611,10.09996,1.28548,0.00424,-0.08437,0.00143,-0.02767,0.00207,-0.07724,0.11593,0.46026,9.68453,22.29224,14.24717,1.95682,8.81981
252,252,2268A5,7,122,0,0,0,0,0,0,0,0,0,0,0,0,1,1,2,2,2,1,1,0,0,0,0,0,1,0,0,0,0,0,0,0,1,0,0,0,0,0,0,1,0,0,0,1,0,0,11.83056,7.07447,2.84554,0.26723,0.0356,0.00373,0.02234,0.00559,-0.02471,2.00468,-1.06224,9.65043,2.92277,4.55286,103.75033,69.03068
693,693,ED731A,1,12,1,0,0,1,0,0,0,0,0,0,0,0,0,2,2,2,2,2,1,0,0,0,0,0,1,0,0,0,0,0,0,0,1,0,0,0,0,0,0,1,0,0,0,1,0,0,10.83056,9.44017,1.10986,0.00728,0.04852,9e-05,-0.05033,0.00252,-0.01369,-0.22375,-0.08672,9.66249,10.03813,9.52815,2.02259,8.89486
694,694,ED731A,1,29,0,1,0,1,0,0,0,0,0,0,0,0,0,2,2,2,2,2,1,0,0,0,0,0,1,0,0,0,0,0,0,0,1,0,0,0,0,0,0,1,0,0,0,1,0,0,6.12778,5.2877,0.81128,0.03739,-0.04314,0.00047,-0.04152,0.00167,0.0438,0.10614,-0.52458,9.68934,0.55293,1.19301,8.90741,77.4204
695,695,ED731A,1,34,0,0,1,1,0,0,0,0,0,0,0,0,0,2,2,2,2,2,1,0,0,0,0,0,1,0,0,0,0,0,0,0,1,0,0,0,0,0,0,1,0,0,0,1,0,0,4.08889,3.71354,0.13933,0.26304,-0.00324,0.00309,0.03949,0.00377,0.00628,0.91499,-0.05241,9.66473,3.60949,2.36292,155.58984,218.36237
696,696,ED731A,1,42,1,0,0,0,0,0,0,0,0,0,0,0,0,2,2,2,2,2,1,0,0,0,0,0,1,0,0,0,0,0,0,0,1,0,0,0,0,0,0,1,0,0,0,1,0,0,7.98889,5.75093,1.09223,-0.00353,-0.01142,-0.0011,0.03644,0.00379,-0.01103,-0.02265,0.13166,9.65548,12.7182,6.99261,2.73976,97.5107
697,697,ED731A,1,58,1,0,0,0,0,1,0,0,0,0,0,0,0,2,2,2,2,2,1,0,0,0,0,0,1,0,0,0,0,0,0,0,1,0,0,0,0,0,0,1,0,0,0,1,0,0,9.23333,4.53422,3.51479,0.06004,0.0004,0.00061,0.00342,0.002,-0.00961,0.0316,0.0558,9.67616,7.0529,8.96438,108.03919,190.22053
698,698,ED731A,1,112,0,0,0,0,1,0,0,0,0,0,0,0,0,2,2,2,2,2,1,0,0,0,0,0,1,0,0,0,0,0,0,0,1,0,0,0,0,0,0,1,0,0,0,1,0,0,6.12778,3.92836,0.73417,0.1058,0.02285,0.00342,-0.00944,0.00011,0.02318,0.18442,-0.02779,9.66606,13.72938,11.28748,98.83177,69.9208
699,699,ED731A,1,120,0,1,0,1,0,0,0,0,0,0,0,0,0,2,2,2,2,2,1,0,0,0,0,0,1,0,0,0,0,0,0,0,1,0,0,0,0,0,0,1,0,0,0,1,0,0,7.65556,6.13956,1.31085,-0.09716,-0.04923,-0.00279,-0.00383,0.00341,0.03123,-0.72101,-0.12493,9.67909,8.08563,9.43575,-55.18032,80.22658
700,700,ED731A,1,131,0,0,1,1,0,0,0,0,0,0,0,0,0,2,2,2,2,2,1,0,0,0,0,0,1,0,0,0,0,0,0,0,1,0,0,0,0,0,0,1,0,0,0,1,0,0,4.29722,3.62411,0.25733,-0.33934,0.01541,-0.00376,-0.09816,0.00716,-0.024,-1.35706,0.27264,9.67595,7.22171,4.35904,-224.00986,54.45119
701,701,ED731A,1,135,0,0,0,0,1,0,0,0,0,0,0,0,0,2,2,2,2,2,1,0,0,0,0,0,1,0,0,0,0,0,0,0,1,0,0,0,0,0,0,1,0,0,0,1,0,0,6.6,5.09039,0.68529,-0.03383,0.01991,-0.00031,-0.0331,0.00277,-0.09009,-0.17604,0.00705,9.669,8.37507,6.69526,-17.75278,105.03855
702,702,ED731A,1,153,1,0,0,1,0,0,0,0,0,1,0,0,0,2,2,2,2,2,1,0,0,0,0,0,1,0,0,0,0,0,0,0,1,0,0,0,0,0,0,1,0,0,0,1,0,0,10.47778,8.25991,1.26064,0.00906,-0.0385,-0.00015,-0.0541,0.00258,-0.05725,0.11403,0.57908,9.68781,17.50958,6.18537,3.05207,8.53685
703,703,ED731A,1,163,0,0,0,0,0,0,0,0,0,0,0,0,1,2,2,2,2,2,1,0,0,0,0,0,1,0,0,0,0,0,0,0,1,0,0,0,0,0,0,1,0,0,0,1,0,0,10.40556,5.42493,2.27431,0.17448,-0.03276,0.0018,0.03653,0.00286,0.03332,0.85419,-0.52622,9.68023,4.74613,5.68582,84.25628,68.27438
715,715,ED731A,3,17,1,0,0,1,0,0,0,0,0,0,0,0,0,1,2,2,2,2,1,0,0,0,0,0,1,0,0,0,0,0,0,0,1,0,0,0,0,0,0,1,0,0,0,1,0,0,10.57222,9.10317,1.15157,0.00628,0.02066,-0.0001,-0.05091,0.00192,-0.01328,-0.22681,-0.16205,9.69526,11.8015,9.03406,1.35043,8.14212
716,716,ED731A,3,33,0,1,0,1,0,0,0,0,0,0,0,0,0,1,2,2,2,2,1,0,0,0,0,0,1,0,0,0,0,0,0,0,1,0,0,0,0,0,0,1,0,0,0,1,0,0,6.07778,5.04195,0.71893,0.13054,0.04358,0.00255,-0.03429,0.00374,0.0579,0.43703,-0.36948,9.66965,0.8101,1.58402,64.16604,133.83399
717,717,ED731A,3,40,0,0,1,1,0,0,0,0,0,0,0,0,0,1,2,2,2,2,1,0,0,0,0,0,1,0,0,0,0,0,0,0,1,0,0,0,0,0,0,1,0,0,0,1,0,0,4.08333,3.92458,0.08338,0.44074,-0.21564,0.00063,0.09109,0.00753,0.02519,1.80789,-0.06542,9.67139,3.98527,1.14,257.88617,160.74146
718,718,ED731A,3,44,1,0,0,0,0,0,0,0,0,0,0,0,0,1,2,2,2,2,1,0,0,0,0,0,1,0,0,0,0,0,0,0,1,0,0,0,0,0,0,1,0,0,0,1,0,0,8.15833,6.02199,1.17441,-0.02388,0.002,-0.0007,0.05767,0.00359,0.00401,-0.13742,0.0355,9.66313,11.21006,7.8943,-12.67266,84.73894
719,719,ED731A,3,62,1,0,0,0,0,1,0,0,0,0,0,0,0,1,2,2,2,2,1,0,0,0,0,0,1,0,0,0,0,0,0,0,1,0,0,0,0,0,0,1,0,0,0,1,0,0,10.16111,4.58824,3.52594,0.06132,-0.0073,0.0008,0.00821,0.00237,-0.01115,0.02199,0.00757,9.6724,6.87344,9.37556,105.64801,187.48229
720,720,ED731A,3,115,0,0,0,0,1,0,0,0,0,0,0,0,0,1,2,2,2,2,1,0,0,0,0,0,1,0,0,0,0,0,0,0,1,0,0,0,0,0,0,1,0,0,0,1,0,0,5.35833,4.40658,0.37718,0.13277,0.03823,0.00055,-0.01177,-0.00277,0.018,0.36296,0.12521,9.71407,9.78283,8.26074,70.98254,74.51754
721,721,ED731A,3,121,0,1,0,1,0,0,0,0,0,0,0,0,0,1,2,2,2,2,1,0,0,0,0,0,1,0,0,0,0,0,0,0,1,0,0,0,0,0,0,1,0,0,0,1,0,0,8.23611,6.26611,1.3419,-0.08989,-0.03684,-0.00308,-0.01118,0.00359,0.03233,-0.71704,-0.06442,9.63119,9.42322,12.46061,-48.40806,74.82482
722,722,ED731A,3,132,0,0,1,1,0,0,0,0,0,0,0,0,0,1,2,2,2,2,1,0,0,0,0,0,1,0,0,0,0,0,0,0,1,0,0,0,0,0,0,1,0,0,0,1,0,0,3.875,3.31597,0.26481,-0.33784,0.02026,-0.00126,-0.09749,0.00675,-0.02623,-1.24302,-0.04763,9.6688,3.21887,3.83571,-244.82079,41.01752
723,723,ED731A,3,136,0,0,0,0,1,0,0,0,0,0,0,0,0,1,2,2,2,2,1,0,0,0,0,0,1,0,0,0,0,0,0,0,1,0,0,0,0,0,0,1,0,0,0,1,0,0,6.05278,4.64398,0.61117,-0.05453,0.02629,-0.00034,-0.02897,0.00317,-0.08274,-0.2292,0.02656,9.66379,9.14767,6.89464,-35.63694,87.45416
724,724,ED731A,3,154,1,0,0,1,0,0,0,0,0,1,0,0,0,1,2,2,2,2,1,0,0,0,0,0,1,0,0,0,0,0,0,0,1,0,0,0,0,0,0,1,0,0,0,1,0,0,10.56111,7.60982,1.48866,0.0399,-0.06808,-0.00192,-0.04448,0.00166,-0.05197,0.3064,0.60437,9.63574,18.17782,6.97002,17.78306,35.16587
725,725,ED731A,3,164,0,0,0,0,0,0,0,0,0,0,0,0,1,1,2,2,2,2,1,0,0,0,0,0,1,0,0,0,0,0,0,0,1,0,0,0,0,0,0,1,0,0,0,1,0,0,10.71389,6.03737,2.40222,0.1695,-0.01439,0.00082,0.02434,0.00315,0.01838,0.90753,-0.58924,9.66786,4.9078,6.15803,76.50801,70.40175
737,737,ED731A,5,11,1,0,0,1,0,0,0,0,0,0,0,0,0,1,2,1,2,2,1,0,0,0,0,0,1,0,0,0,0,0,0,0,1,0,0,0,0,0,0,1,0,0,0,1,0,0,14.72222,11.39288,2.51444,0.02493,0.05317,0.00128,-0.02675,0.00238,-0.03446,-0.08771,-0.41855,9.67743,11.04091,20.00769,8.60478,22.94795
738,738,ED731A,5,24,0,1,0,1,0,0,0,0,0,0,0,0,0,1,2,1,2,2,1,0,0,0,0,0,1,0,0,0,0,0,0,0,1,0,0,0,0,0,0,1,0,0,0,1,0,0,6.86944,5.73273,0.82586,0.17581,0.11725,0.00563,-0.00756,0.00417,0.02595,0.70284,-0.59831,9.65805,1.16096,3.05018,84.45899,145.94497
739,739,ED731A,5,29,0,0,1,1,0,0,0,0,0,0,0,0,0,1,2,1,2,2,1,0,0,1,0,1,0,0,0,0,0,1,0,0,1,0,0,0,0,0,0,1,0,0,0,1,0,0,5.97778,4.90845,0.49064,0.34564,-0.19698,-0.00384,0.0797,0.00387,-0.00071,1.62313,0.14488,9.6343,11.89798,3.67122,173.08615,192.76676
740,740,ED731A,5,33,1,0,0,0,0,0,0,0,0,0,0,0,0,1,2,1,2,2,1,0,0,0,0,0,1,0,0,0,0,0,0,0,1,0,0,0,0,0,0,1,0,0,0,1,0,0,9.325,6.75451,1.36542,-0.01676,-0.02988,0.00029,0.05354,0.00423,-0.00656,-0.05751,0.19326,9.65038,16.2817,14.51028,-13.7155,88.13742
741,741,ED731A,5,48,1,0,0,0,0,1,0,0,0,0,0,0,0,1,2,1,2,2,1,0,0,0,0,0,1,0,0,0,0,0,0,0,1,0,0,0,0,0,0,1,0,0,0,1,0,0,13.66111,5.71006,4.43593,0.07866,-0.00261,0.00179,0.03173,0.00195,-0.01947,0.04035,-0.04372,9.66831,12.20907,17.03584,13.83151,245.81361
742,742,ED731A,5,89,0,0,0,0,1,0,0,0,0,0,0,0,0,1,2,1,2,2,1,0,0,0,0,0,1,0,0,0,0,0,0,0,1,0,0,0,0,0,0,1,0,0,0,1,0,0,8.14722,6.12774,0.80094,0.17143,0.03088,0.00451,0.02721,-0.00299,-0.01819,0.84866,0.39911,9.64686,18.49698,12.78917,70.00183,49.86246
743,743,ED731A,5,94,0,1,0,1,0,0,0,0,0,0,0,0,0,1,2,1,2,2,1,0,0,0,0,0,1,0,0,0,0,0,0,0,1,0,0,0,0,0,0,1,0,0,0,1,0,0,10.19167,8.24607,1.6132,-0.08274,0.00406,-0.0031,0.01878,0.00487,-0.00087,-0.75944,-0.45415,9.70231,6.54687,12.78134,-38.15711,60.14128
744,744,ED731A,5,101,0,0,1,1,0,0,0,0,0,0,0,0,0,1,2,1,2,2,1,0,0,0,0,0,1,0,0,0,0,0,0,0,1,0,0,0,0,0,0,1,0,0,0,1,0,0,5.35556,4.74737,0.35651,-0.39444,-0.06193,-0.00178,-0.05598,0.00639,0.02317,-2.16749,-0.24832,9.65504,0.0,0.0,-206.10491,33.15723
745,745,ED731A,5,104,0,0,0,0,1,0,0,0,0,0,0,0,0,1,2,1,2,2,1,0,0,0,0,0,1,0,0,0,0,0,0,0,1,0,0,0,0,0,0,1,0,0,0,1,0,0,8.25833,5.27777,1.24257,-0.07829,0.0299,0.00082,-0.04563,0.00378,-0.09561,-0.40991,0.11384,9.65591,11.61796,10.14429,-44.91437,103.04926
746,746,ED731A,5,122,1,0,0,1,0,0,0,0,0,1,0,0,0,1,2,1,1,2,1,0,0,0,0,0,1,0,0,0,0,0,0,0,1,0,0,0,0,0,0,1,0,0,0,1,0,0,13.26944,9.52741,1.87468,0.02725,-0.03527,-0.00202,-0.06205,0.00192,-0.09249,0.29181,1.15223,9.62129,32.51741,16.41423,8.73615,20.37887
747,747,ED731A,5,129,0,0,0,0,0,0,0,0,0,0,0,0,1,1,2,1,2,2,1,0,0,0,0,0,1,0,0,0,0,0,0,0,1,0,0,0,0,0,0,1,0,0,0,1,0,0,13.36389,6.67219,3.23118,0.18429,-0.01585,0.0021,0.0228,0.00256,-0.00581,1.0249,-0.71319,9.68195,5.30419,8.13485,77.74898,70.02001
759,759,ED731A,7,16,1,0,0,1,0,0,0,0,0,0,0,0,0,1,2,2,2,1,1,0,0,0,0,0,1,0,0,0,0,0,0,0,1,0,0,0,0,0,0,1,0,0,0,1,0,0,10.7,9.32962,1.1715,0.01593,0.02219,0.00111,-0.0149,0.00107,-0.05455,-0.15778,0.10523,9.66021,11.49104,9.83841,4.441,16.86472
760,760,ED731A,7,32,0,1,0,1,0,0,0,0,0,0,0,0,0,1,2,2,2,1,1,0,0,0,0,0,1,0,0,0,0,0,0,0,1,0,0,0,0,0,0,1,0,0,0,1,0,0,6.94722,5.61619,0.97941,0.07452,0.11871,0.00602,-0.0136,0.00295,-0.00132,0.24687,-0.583,9.69313,0.0,0.0,29.23108,101.88556
761,761,ED731A,7,37,0,0,1,1,0,0,0,0,0,0,0,0,0,1,2,2,2,1,1,0,0,0,0,0,1,0,0,0,0,0,0,0,1,0,0,0,0,0,0,1,0,0,0,1,0,0,4.24167,3.98768,0.10372,0.39693,-0.17191,-0.00214,0.06311,0.00973,0.02053,1.65382,-0.19542,9.61621,2.87544,2.07124,228.42412,198.03472
762,762,ED731A,7,42,1,0,0,0,0,0,0,0,0,0,0,1,0,1,2,2,2,1,1,0,0,0,0,0,1,0,0,0,0,0,0,0,1,0,0,0,0,0,0,1,0,0,0,1,0,0,8.06389,6.1924,1.23155,-0.01581,0.00715,0.00168,0.06358,0.0016,0.0114,-0.04947,-0.01284,9.66631,11.16298,7.43495,-21.67019,91.16555
763,763,ED731A,7,56,1,0,0,0,0,1,0,0,0,0,0,0,0,1,2,2,2,1,1,0,0,0,0,0,1,0,0,0,0,0,0,0,1,0,0,0,0,0,0,1,0,0,0,1,0,0,9.75,4.14325,3.60138,0.05281,0.00121,0.00145,0.00861,0.00119,0.0001,0.01498,-0.00946,9.66495,7.59387,10.61514,43.43383,206.96346
764,764,ED731A,7,117,0,0,0,0,1,0,0,0,0,0,0,0,0,1,2,2,2,1,1,0,0,0,0,0,1,0,0,0,0,0,0,0,1,0,0,0,0,0,0,1,0,0,0,1,0,0,6.84444,4.62266,0.97379,0.15154,0.00604,0.00496,0.00453,4e-05,0.01101,0.56818,0.57667,9.68406,15.00153,8.73655,74.281,77.20678
765,765,ED731A,7,123,0,1,0,1,0,0,0,0,0,0,0,0,0,1,2,2,2,1,1,0,0,0,0,0,1,0,0,0,0,0,0,0,1,0,0,0,0,0,0,1,0,0,0,1,0,0,8.375,6.89405,1.16824,-0.09281,-0.03667,-0.00205,0.01004,0.00393,0.0146,-0.76581,-0.10087,9.66559,6.0628,9.8282,-45.35221,63.84626
766,766,ED731A,7,132,0,0,1,1,0,0,0,0,0,0,0,0,0,1,2,2,2,1,1,0,0,0,0,0,1,0,0,0,0,0,0,0,1,0,0,0,0,0,0,1,0,0,0,1,0,0,5.09722,4.30783,0.51062,-0.3855,-0.02489,0.00034,-0.08325,0.00721,0.00126,-1.78213,-0.09059,9.61591,1.78391,3.97497,-222.03333,62.01005
767,767,ED731A,7,136,0,0,0,0,1,0,0,0,0,0,0,0,0,1,2,2,2,1,1,0,0,0,0,0,1,0,0,0,0,0,0,0,1,0,0,0,0,0,0,1,0,0,0,1,0,0,7.63333,5.43496,1.25048,-0.06738,0.05383,0.00166,-0.02329,0.00308,-0.10511,-0.39823,0.06269,9.65624,8.43675,9.39945,-40.83758,80.84593
768,768,ED731A,7,152,1,0,0,1,0,0,0,0,0,1,0,0,0,1,2,2,2,1,1,0,0,0,0,0,1,0,0,0,0,0,0,0,1,0,0,0,0,0,0,1,0,0,0,1,0,0,10.81944,9.0157,1.47011,0.04038,-0.04441,-0.00073,-0.05687,0.00197,-0.08728,0.31677,0.34966,9.67721,17.42655,10.16631,8.4254,35.0721
769,769,ED731A,7,163,0,0,0,0,0,0,0,0,0,0,0,0,1,1,2,2,2,1,1,0,0,0,0,0,1,0,0,0,0,0,0,0,1,0,0,0,0,0,0,1,0,0,0,1,0,0,10.66389,5.73674,1.81147,0.18782,0.00053,0.00284,0.03998,0.00241,0.03175,0.96699,-0.60622,9.66974,3.25097,4.82888,94.35676,65.82667
902,902,492488,1,16,1,0,0,1,0,0,0,0,0,0,0,0,0,2,2,2,2,2,1,0,0,0,0,0,1,0,0,0,0,0,0,0,1,0,0,0,0,0,0,1,0,0,0,1,0,0,10.00278,9.39032,0.47113,0.0132,0.0127,-0.00108,-0.07018,0.00268,-0.01724,-0.17172,-0.09963,9.67357,11.31179,6.17949,2.8047,8.65877
903,903,492488,1,31,0,1,0,1,0,0,0,0,0,0,0,0,0,2,2,2,2,2,1,0,0,0,0,0,1,0,0,0,0,0,0,0,1,0,0,0,0,0,0,1,0,0,0,1,0,0,7.65556,6.03547,0.81296,0.09528,0.06605,0.00036,-0.07162,0.0017,0.05799,0.35787,-0.49528,9.69042,0.0,0.0,36.94889,67.88654
904,904,492488,1,36,0,0,1,1,0,0,0,0,0,0,0,0,0,2,2,2,2,2,1,0,0,0,0,0,1,0,0,0,0,0,0,0,1,0,0,0,0,0,0,1,0,0,0,1,0,0,4.73056,3.41529,0.6301,0.34241,-0.11601,-0.00045,0.06662,0.00864,0.07381,1.32286,-0.27755,9.70807,4.51705,5.65935,219.83067,195.79651
905,905,492488,1,42,1,0,0,0,0,0,0,0,0,0,0,0,0,2,2,2,2,2,1,0,0,0,0,0,1,0,0,0,0,0,0,0,1,0,0,0,0,0,0,1,0,0,0,1,0,0,8.23889,6.47683,1.24032,-0.02368,0.01699,-0.00107,0.05159,0.00229,0.04114,-0.16038,0.20749,9.69397,13.33419,9.62501,-11.91914,68.32739
906,906,492488,1,57,1,0,0,0,0,1,0,0,0,0,0,0,0,2,2,2,2,2,1,0,0,0,0,0,1,0,0,0,0,0,0,0,1,0,0,0,0,0,0,1,0,0,0,1,0,0,10.26944,5.46005,3.79488,0.07504,0.0006,7e-05,-0.0081,0.003,-0.00341,0.05854,0.03414,9.70473,9.26969,13.81104,42.35438,187.57737
907,907,492488,1,100,0,0,0,0,1,0,0,0,0,0,0,0,0,2,2,2,2,2,1,0,0,0,0,0,1,0,0,0,0,0,0,0,1,0,0,0,0,0,0,1,0,0,0,1,0,0,6.83889,5.26994,0.67784,0.15196,-0.00061,0.00154,-0.0208,-0.00263,0.02672,0.64276,0.29884,9.7039,13.39288,8.46924,68.86177,56.32345
908,908,492488,1,106,0,1,0,1,0,0,0,0,0,0,0,0,0,2,2,2,2,2,1,0,0,0,0,0,1,0,0,0,0,0,0,0,1,0,0,0,0,0,0,1,0,0,0,1,0,0,8.46944,7.15818,1.0459,-0.10437,-0.00695,-0.00377,-0.01289,0.00533,0.04527,-0.93596,-0.10669,9.71568,7.36776,10.09204,-41.73031,56.72643
909,909,492488,1,115,0,0,1,1,0,0,0,0,0,0,0,0,0,2,2,2,2,2,1,0,0,0,0,0,1,0,0,0,0,0,0,0,1,0,0,0,0,0,0,1,0,0,0,1,0,0,4.825,4.58064,0.12382,-0.48231,-0.04361,-0.00776,-0.10054,0.00451,-0.00824,-2.41862,0.1721,9.63652,11.4169,4.97214,-246.86861,34.93415
910,910,492488,1,117,0,0,0,0,1,0,0,0,0,0,0,0,0,2,2,2,2,2,1,0,0,0,0,0,1,0,0,0,0,0,0,0,1,0,0,0,0,0,0,1,0,0,0,1,0,0,7.39444,6.50327,0.56794,-0.08112,0.06328,-0.00102,-0.0231,0.00563,-0.11229,-0.52945,0.16114,9.70162,12.12364,6.05402,-42.64988,95.03966
911,911,492488,1,132,1,0,0,1,0,0,0,0,0,1,0,0,0,2,2,2,2,2,1,0,0,0,0,0,1,0,0,0,0,0,0,0,1,0,0,0,0,0,0,1,0,0,0,1,0,0,11.74444,9.82357,1.50885,0.01188,0.01267,-0.00035,-0.01695,0.00334,-0.11365,0.14455,0.77525,9.69341,24.01687,11.91591,6.57013,17.14819
912,912,492488,1,139,0,0,0,0,0,0,0,0,0,0,0,0,1,2,2,2,2,2,1,0,0,0,0,0,1,0,0,0,0,0,0,0,1,0,0,0,0,0,0,1,0,0,0,1,0,0,11.78611,6.5495,2.52398,0.17738,-0.00455,0.00023,0.0191,0.00444,-0.01469,1.09719,-0.60045,9.70421,5.73495,7.68581,69.06288,71.36706
924,924,492488,3,11,1,0,0,1,0,0,0,0,0,0,0,0,0,1,2,2,2,2,1,0,0,0,0,0,1,0,0,0,0,0,0,0,1,0,0,0,0,0,0,1,0,0,0,1,0,0,11.55833,10.79316,0.61022,0.01174,-0.01536,-8e-05,-0.06605,0.0017,-0.05395,-0.17959,-0.10701,9.73826,11.9311,7.71567,1.71595,8.91568
925,925,492488,3,24,0,1,0,1,0,0,0,0,0,0,0,0,0,1,2,2,2,2,1,0,0,0,0,0,1,0,0,0,0,0,0,0,1,0,0,0,0,0,0,1,0,0,0,1,0,0,8.96111,6.64177,1.40071,0.1215,0.11065,0.00029,-0.07306,0.00407,0.03187,0.61661,-0.86694,9.71863,1.07961,1.80765,48.48216,73.02104
926,926,492488,3,29,0,0,1,1,0,0,0,0,0,0,0,0,0,1,2,2,2,2,1,0,0,0,0,0,1,0,0,0,0,0,0,0,1,0,0,0,0,0,0,1,0,0,0,1,0,0,5.26389,4.40617,0.29423,0.36884,-0.12364,0.00199,0.07191,0.00513,0.08805,1.68211,-0.03723,9.68479,6.6095,5.78218,198.94185,193.54113
927,927,492488,3,34,1,0,0,0,0,0,0,0,0,0,0,0,0,1,2,2,2,2,1,0,0,0,0,0,1,0,0,0,0,0,0,0,1,0,0,0,0,0,0,1,0,0,0,1,0,0,9.08611,7.51679,1.04779,0.01509,-0.04851,-0.00403,0.10451,0.00499,0.07877,0.09861,0.38993,9.68636,12.70872,11.24541,4.09361,58.88313
928,928,492488,3,44,1,0,0,0,0,1,0,0,0,0,0,0,0,1,2,2,2,2,1,0,0,0,0,0,1,0,0,0,0,0,0,0,1,0,0,0,0,0,0,1,0,0,0,1,0,0,12.03889,6.44029,3.98347,0.06488,0.02045,0.00122,0.00513,0.00216,0.00895,-0.01457,0.03487,9.70923,13.08505,15.98345,14.07417,184.829
929,929,492488,3,87,0,0,0,0,1,0,0,0,0,0,0,0,0,1,2,2,2,2,1,0,0,0,0,0,1,0,0,0,0,0,0,0,1,0,0,0,0,0,0,1,0,0,0,1,0,0,8.81111,6.98935,0.93657,0.22519,0.03224,0.001,-0.01099,0.00331,-0.02717,1.39559,0.67784,9.60963,24.3176,4.18003,84.17873,47.18227
930,930,492488,3,91,0,1,0,1,0,0,0,0,0,0,0,0,0,1,2,2,2,2,1,0,0,0,0,0,1,0,0,0,0,0,0,0,1,0,0,0,0,0,0,1,0,0,0,1,0,0,9.86111,7.53301,1.72018,-0.18331,-0.09683,-0.00451,-0.04524,0.00686,-0.01564,-1.37651,-0.1807,9.713,7.993,10.35038,-80.88321,93.48191
931,931,492488,3,100,0,0,1,1,0,0,0,0,0,0,0,0,0,1,2,2,2,2,1,0,0,0,0,0,1,0,0,0,0,0,0,0,1,0,0,0,0,0,0,1,0,0,0,1,0,0,6.79722,5.99308,0.47011,-0.43213,0.11509,-0.00805,-0.0525,0.00897,-0.09925,-2.73991,0.96499,9.6168,21.29957,2.09535,-181.61296,54.06107
932,932,492488,3,102,0,0,0,0,1,0,0,0,0,0,0,0,0,1,2,2,2,2,1,0,0,0,0,0,1,0,0,0,0,0,0,0,1,0,0,0,0,0,0,1,0,0,0,1,0,0,8.50833,7.18149,0.88956,-0.03738,0.04198,0.00136,-0.01135,0.00513,-0.10417,-0.3894,0.08159,9.67027,12.0519,10.00392,-11.23896,82.06
933,933,492488,3,115,1,0,0,1,0,0,0,0,0,1,0,0,0,1,2,2,2,2,1,0,0,0,0,0,1,0,0,0,0,0,0,0,1,0,0,0,0,0,0,1,0,0,0,1,0,0,13.36944,11.14825,1.65868,-0.00165,0.05161,-0.00338,-0.05038,0.00577,-0.08851,0.00783,0.44159,9.65429,20.7046,17.05034,-2.11396,2.83947
934,934,492488,3,123,0,0,0,0,0,0,0,0,0,0,0,0,1,1,2,2,2,2,1,0,0,0,0,0,1,0,0,0,0,0,0,0,1,0,0,0,0,0,0,1,0,0,0,1,0,0,11.54445,6.94399,1.2665,0.24006,-0.01913,0.00239,0.0221,0.00354,-0.0018,1.55138,-0.38228,9.71495,8.45428,7.8072,93.2884,65.83308
946,946,492488,5,9,1,0,0,1,0,0,0,0,0,0,0,0,0,1,2,1,2,2,1,0,0,0,0,0,1,0,0,0,0,0,0,0,1,0,0,0,0,0,0,1,0,0,0,1,0,0,,,,0.03761,-0.00854,0.00243,-0.00377,0.00186,-0.04145,0.04308,-0.68133,9.71847,10.70231,18.59962,10.49177,23.31667
947,947,492488,5,20,0,1,0,1,0,0,0,0,0,0,0,0,0,1,2,1,2,2,1,0,0,0,0,0,1,0,0,0,0,0,0,0,1,0,0,0,0,0,0,1,0,0,0,1,0,0,,,,-0.00747,0.00601,0.00588,0.00032,0.0002,0.03448,-0.22627,-0.67737,9.72117,2.78418,4.21182,-7.91911,69.26922
948,948,492488,5,23,0,0,1,1,0,0,0,0,0,0,0,0,0,1,2,1,2,2,1,0,0,0,0,0,1,0,0,0,0,0,0,0,1,0,0,0,0,0,0,1,0,0,0,1,0,0,,,,0.59235,-0.03186,0.00298,0.08135,0.01069,0.02401,2.74159,-0.34811,9.64732,5.7077,3.62562,306.65342,89.95792
949,949,492488,5,27,1,0,0,0,0,0,0,0,0,0,0,0,0,1,2,1,2,2,1,0,0,0,0,0,1,0,0,0,0,0,0,0,1,0,0,0,0,0,0,1,0,0,0,1,0,0,,,,-0.0369,0.00042,0.00036,0.06822,0.00327,-0.02481,-0.35315,0.32354,9.63475,20.56834,19.00242,-13.07658,66.41372
950,950,492488,5,39,1,0,0,0,0,1,0,0,0,0,0,0,0,1,2,1,2,2,1,0,0,0,0,0,1,0,0,0,0,0,0,0,1,0,0,0,0,0,0,1,0,0,0,1,0,0,,,,0.10683,-0.01129,0.00277,0.05978,0.00212,-0.03612,0.23116,-0.02414,9.68362,23.02124,25.32954,12.7155,185.59726
951,951,492488,5,69,0,0,0,0,1,0,0,0,0,0,0,0,0,1,2,1,2,2,1,0,0,0,0,0,1,0,0,0,0,0,0,0,1,0,0,0,0,0,0,1,0,0,0,1,0,0,,,,0.17727,0.01184,0.00576,0.00471,-0.00304,-0.09458,1.16798,0.53159,9.72311,26.35259,15.45807,58.51654,50.4317
952,952,492488,5,74,0,1,0,1,0,0,0,0,0,0,0,0,0,1,2,1,2,2,1,0,0,0,0,0,1,0,0,0,0,0,0,0,1,0,0,0,0,0,0,1,0,0,0,1,0,0,,,,-0.1789,-0.15883,-0.00322,-0.04133,0.00565,-0.09078,-1.67142,-0.82722,9.69422,11.48083,22.99134,-66.0515,72.34237
953,953,492488,5,80,0,0,1,1,0,0,0,0,0,0,0,0,0,1,2,1,2,2,1,0,0,0,0,0,1,0,0,0,0,0,0,0,1,0,0,0,0,0,0,1,0,0,0,1,0,0,,,,-0.53573,0.06713,-0.00582,0.0284,0.01298,-0.08351,-3.53524,1.04595,9.60913,27.74401,8.65343,-219.08673,54.74649
954,954,492488,5,83,0,0,0,0,1,0,0,0,0,0,0,0,0,1,2,1,2,2,1,0,0,0,0,0,1,0,0,0,0,0,0,0,1,0,0,0,0,0,0,1,0,0,0,1,0,0,,,,-0.04095,0.04239,0.00491,0.0563,0.00527,0.02233,-0.40729,0.20801,9.64222,19.51633,17.19608,-14.69839,78.34107
955,955,492488,5,93,1,0,0,1,0,0,0,0,0,1,0,0,0,1,2,1,1,2,1,0,0,0,0,0,1,0,0,0,0,0,0,0,1,0,0,0,0,0,0,1,0,0,0,1,0,0,,,,0.00534,-0.05236,-0.00279,0.09056,0.00644,0.0113,0.07558,0.62769,9.69851,35.26664,27.28009,0.11457,5.53811
956,956,492488,5,99,0,0,0,0,0,0,0,0,0,0,0,0,1,1,2,1,2,2,1,0,0,0,0,0,1,0,0,0,0,0,0,0,1,0,0,0,0,0,0,1,0,0,0,1,0,0,,,,0.23265,-0.01012,0.00308,0.03276,0.00415,-0.04719,1.85736,-0.91494,9.67038,8.0767,11.93374,72.26556,72.26599
968,968,492488,7,15,1,0,0,1,0,0,0,0,0,0,0,0,0,1,2,2,2,1,1,0,0,0,0,0,1,0,0,0,0,0,0,0,1,0,0,0,0,0,0,1,0,0,0,1,0,0,,,,0.01878,0.00756,0.00281,0.01616,0.00135,-0.04904,-0.08203,-0.31311,9.70012,12.46513,8.59978,4.95927,14.38805
969,969,492488,7,29,0,1,0,1,0,0,0,0,0,0,0,0,0,1,2,2,2,1,1,0,0,0,0,0,1,0,0,0,0,0,0,0,1,0,0,0,0,0,0,1,0,0,0,1,0,0,,,,0.13156,0.08844,0.00542,0.0332,0.00226,-0.01778,0.55475,-0.71746,9.73053,1.05477,1.57818,62.30415,107.11001
970,970,492488,7,34,0,0,1,1,0,0,0,0,0,0,0,0,0,1,2,2,2,1,1,0,0,0,0,0,1,0,0,0,0,0,0,0,1,0,0,0,0,0,0,1,0,0,0,1,0,0,,,,0.42637,-0.22562,-0.00092,0.06257,0.0121,-0.04559,1.98779,-0.187,9.63493,4.34021,2.11324,228.87399,206.40577
971,971,492488,7,38,1,0,0,0,0,0,0,0,0,0,0,1,0,1,2,2,2,1,1,0,0,0,0,0,1,0,0,0,0,0,0,0,1,0,0,0,0,0,0,1,0,0,0,1,0,0,,,,-0.01514,-0.00038,0.00247,0.04392,0.00056,-0.03909,-0.13056,-0.19256,9.68915,11.31314,9.14639,-5.39491,62.11251
972,972,492488,7,56,1,0,0,0,0,1,0,0,0,0,0,0,0,1,2,2,2,1,1,0,0,0,0,0,1,0,0,0,0,0,0,0,1,0,0,0,0,0,0,1,0,0,0,1,0,0,,,,0.08942,0.00855,0.00286,0.03852,0.00085,-0.03979,0.12444,0.13225,9.68367,13.21644,15.1133,-1.42851,188.8202
973,973,492488,7,92,0,0,0,0,1,0,0,0,0,0,0,0,0,1,2,2,2,1,1,0,0,0,0,0,1,0,0,0,0,0,0,0,1,0,0,0,0,0,0,1,0,0,0,1,0,0,,,,0.14043,0.07457,0.00727,0.02984,-0.00088,-0.03978,0.64393,0.02739,9.66511,14.23605,11.8642,60.06648,55.73257
974,974,492488,7,98,0,1,0,1,0,0,0,0,0,0,0,0,0,1,2,2,2,1,1,0,0,0,0,0,1,0,0,0,0,0,0,0,1,0,0,0,0,0,0,1,0,0,0,1,0,0,,,,-0.09042,-0.09455,-0.0017,0.02957,0.00266,-0.05036,-0.86964,-0.2836,9.70085,9.12728,14.16441,-36.13262,62.53582
975,975,492488,7,106,0,0,1,1,0,0,0,0,0,0,0,0,0,1,2,2,2,1,1,0,0,0,0,0,1,0,0,0,0,0,0,0,1,0,0,0,0,0,0,1,0,0,0,1,0,0,,,,-0.46504,0.02108,-0.00267,0.0025,0.00858,0.01786,-2.59582,-0.02504,9.63073,9.72318,7.84107,-230.31484,21.03733
976,976,492488,7,109,0,0,0,0,1,0,0,0,0,0,0,0,0,1,2,2,2,1,1,0,0,0,0,0,1,0,0,0,0,0,0,0,1,0,0,0,0,0,0,1,0,0,0,1,0,0,,,,-0.0897,0.0955,0.00279,-0.04115,0.00406,-0.05916,-0.7234,0.10579,9.65715,13.21958,8.95945,-33.68189,83.16647
977,977,492488,7,122,1,0,0,1,0,0,0,0,0,1,0,0,0,1,2,2,2,1,1,0,0,0,0,0,1,0,0,0,0,0,0,0,1,0,0,0,0,0,0,1,0,0,0,1,0,0,,,,0.04102,-0.03075,0.0012,-0.0191,-0.00023,-0.10187,0.38445,0.38014,9.76819,22.75458,9.43624,15.77168,38.52072
978,978,492488,7,130,0,0,0,0,0,0,0,0,0,0,0,0,1,1,2,2,2,1,1,0,0,0,0,0,1,0,0,0,0,0,0,0,1,0,0,0,0,0,0,1,0,0,0,1,0,0,,,,0.17006,0.01793,0.00369,0.03371,0.00265,-0.01592,1.0812,-0.58286,9.6595,5.31597,8.35661,66.32213,69.83715
