,Unnamed: 0,subject,lap,start_time,straight,roundabout_entry,roundabout_exit,zebra_crossing,left_turn,u_turn,bypass_dummy,car,pedestrian,traffic_light,narrow_road,dummy,bend,habituation,traffic,hurry,frustration,surprise,risk_outcome,risk_source_env,risk_source_other_usr,risk_source_driver,risk_source_crash,risk_evaluation,violation_no,violation_roadside_invasion,violation_give_the_way,violation_road_signs,violation_heavy_braking,violation_roadside_exit,violation_slowdown,emotion_na,emotion_neutral,emotion_surprise,emotion_anger,emotion_boredom,emotion_fear,emotion_fun,gaze_na,gaze_complete_expl,gaze_partial_expl,gaze_poor_expl,distraction_na,distraction_no,distraction_reduced_attention,distraction_speaking,max_speed,avg_speed,std_speed,yaw,yaw_rate,roll,roll_rate,pitch,pitch_rate,lat_acce,long_acce,vert_acce,avg_acce_pedal_pos,std_acce_pedal_pos,avg_steer_angle,std_steer_angle
0,0,0AC2A4,1,7,1,1,0,0,1,0,0,0,0,0,0,0,0,0,2,2,2,2,2,0,0,0,0,0,1,0,0,0,0,0,0,0,1,0,0,0,0,0,0,1,0,0,0,1,0,0,9.70555,8.83906,0.72442,-0.0063,-0.00773,0.0079,0.12653,-0.00532,-0.08504,-0.17444,-0.00078,9.67688,12.38381,8.67537,0.07741,1.52931
1,1,0AC2A4,1,27,1,0,1,0,1,0,0,0,0,0,0,0,0,0,2,2,2,2,2,0,0,0,0,0,1,0,0,0,0,0,0,0,1,0,0,0,0,0,0,1,0,0,0,1,0,0,6.43056,4.8838,0.77016,0.02181,-0.01337,0.00919,0.16792,-0.00545,-0.05774,0.09127,-0.58403,9.70116,0.0,0.0,2.97287,105.15902
2,2,0AC2A4,1,33,1,0,0,1,1,0,0,0,0,0,0,0,0,0,2,2,2,2,2,0,0,0,0,0,1,0,0,0,0,0,0,0,1,0,0,0,0,0,0,1,0,0,0,1,0,0,5.13611,3.75038,0.46078,0.2442,0.02485,0.01137,0.09678,-0.00136,-0.11491,1.07801,-0.02341,9.69091,7.81937,5.49554,158.47021,214.39941
3,3,0AC2A4,1,43,1,1,0,0,0,0,0,0,0,0,0,0,0,0,2,2,2,2,2,0,0,0,0,0,1,0,0,0,0,0,0,0,1,0,0,0,0,0,0,1,0,0,0,1,0,0,8.44167,6.25133,0.73072,-0.03782,-0.05105,0.00615,0.1127,-0.00473,-0.12279,-0.07267,0.22717,9.6628,13.11911,9.1834,-18.71698,78.85933
4,4,0AC2A4,1,58,1,1,0,0,0,0,0,1,0,0,0,0,0,0,2,2,2,2,2,0,0,0,0,0,1,0,0,0,0,0,0,0,1,0,0,0,0,0,0,1,0,0,0,1,0,0,10.99444,5.74236,4.01025,0.06776,-0.00355,0.00896,0.09467,-0.00502,-0.07835,0.14797,-0.05067,9.68366,10.52989,15.64564,-0.0097,227.44937
5,5,0AC2A4,1,100,1,0,0,0,0,1,0,0,0,0,0,0,0,0,2,2,2,2,2,0,0,0,0,0,1,0,0,0,0,0,0,0,1,0,0,0,0,0,0,1,0,0,0,1,0,0,7.14444,5.58863,1.05073,0.0549,-0.01466,0.00868,0.01159,-0.00719,-0.16801,0.18057,-0.00297,9.72445,8.96027,7.49932,29.20223,54.16719
6,6,0AC2A4,1,114,1,0,1,0,1,0,0,0,0,0,0,0,0,0,2,2,2,2,2,0,0,0,0,0,1,0,0,0,0,0,0,0,1,0,0,0,0,0,0,1,0,0,0,1,0,0,5.41944,4.27612,0.61696,-0.26447,-0.05316,0.00506,0.06244,-0.00287,-0.13429,-1.29049,-0.39054,9.68343,3.62739,3.77333,-152.08784,47.70425
7,7,0AC2A4,1,119,1,0,0,1,1,0,0,0,0,0,0,0,0,0,2,2,2,2,2,0,0,0,0,0,1,0,0,0,0,0,0,0,1,0,0,0,0,0,0,1,0,0,0,1,0,0,6.3,4.53347,0.85459,-0.32491,0.03004,0.00113,0.06067,-0.00203,-0.01819,-1.40043,0.67504,9.67285,16.28631,4.59637,-179.05394,69.05274
8,8,0AC2A4,1,124,1,0,0,0,0,1,0,0,0,0,0,0,0,0,2,2,2,2,2,0,0,0,0,0,1,0,0,0,0,0,0,0,1,0,0,0,0,0,0,1,0,0,0,1,0,0,7.18611,6.09457,0.60745,-0.03575,0.02837,0.00946,0.04592,-0.00404,0.00467,-0.02159,0.01072,9.67755,9.571,8.90309,-14.49499,93.74816
9,9,0AC2A4,1,137,1,1,0,0,1,0,0,0,0,0,1,0,0,0,2,2,2,2,2,0,0,0,0,0,1,0,0,0,0,0,0,0,1,0,0,0,0,0,0,1,0,0,0,1,0,0,9.16667,8.28276,0.61979,0.00592,-0.05472,0.00815,0.10481,-0.0046,-0.07698,0.25726,-0.02529,9.66662,14.94762,8.21927,8.36303,23.60026
10,10,0AC2A4,1,149,1,0,0,0,0,0,0,0,0,0,0,0,0,1,2,2,2,2,2,0,0,0,0,0,1,0,0,0,0,0,0,0,1,0,0,0,0,0,0,1,0,0,0,1,0,0,8.875,6.06431,1.95936,0.18311,-0.0262,0.00896,0.02326,-0.00339,-0.14321,1.17043,-0.51834,9.67195,12.11572,8.89009,77.15532,71.55971
11,11,0AC2A4,2,6,2,1,0,0,1,0,0,0,0,0,0,0,0,0,2,2,2,2,2,0,0,0,0,0,1,0,0,0,0,0,0,0,1,0,0,0,0,0,0,1,0,0,0,1,0,0,10.725,9.44398,1.16166,0.00278,-0.00144,0.00807,0.11446,-0.00572,-0.10894,-0.10257,0.13266,9.66356,16.14527,15.65444,3.3717,14.30254
12,12,0AC2A4,2,26,2,0,1,0,1,0,0,0,0,0,0,0,0,0,2,2,2,2,2,0,0,0,0,0,1,0,0,0,0,0,0,0,1,0,0,0,0,0,0,1,0,0,0,1,0,0,7.31111,5.26356,1.00635,0.03519,0.06304,0.00993,0.14722,-0.00492,-0.13891,0.17107,-0.74781,9.71891,0.00475,0.12131,13.95207,118.07075
13,13,0AC2A4,2,31,2,0,0,1,1,0,0,0,0,0,0,0,0,0,2,2,2,2,2,0,0,0,0,0,1,0,0,0,0,0,0,0,1,0,0,0,0,0,0,1,0,0,0,1,0,0,4.21389,3.673,0.14011,0.26923,-0.09133,0.01033,0.07172,-0.00248,-0.15574,1.17048,-0.08319,9.68606,7.01714,5.55604,166.47668,248.49315
14,14,0AC2A4,2,38,2,1,0,0,0,0,0,0,0,0,0,0,0,0,2,2,2,2,2,0,0,0,0,0,1,0,0,0,0,0,0,0,1,0,0,0,0,0,0,1,0,0,0,1,0,0,9.13056,7.04909,1.35215,-0.01504,0.03604,0.00672,0.10435,-0.00321,-0.15033,0.10136,0.36075,9.67142,17.70576,12.88925,1.82828,84.14423
15,15,0AC2A4,2,52,2,1,0,0,0,0,0,1,0,0,0,0,0,0,2,2,2,2,2,0,0,0,0,0,1,0,0,0,0,0,0,0,1,0,0,0,0,0,0,1,0,0,0,1,0,0,13.0,6.57918,4.59609,0.0782,-0.01014,0.00884,0.10939,-0.00538,-0.09554,0.18508,-0.03441,9.67786,14.68464,20.92479,-7.82049,231.18583
16,16,0AC2A4,2,89,2,0,0,0,0,1,0,0,0,0,0,0,0,0,2,2,2,2,2,0,0,0,0,0,1,0,0,0,0,0,0,0,1,0,0,0,0,0,0,1,0,0,0,1,0,0,8.44444,6.57605,1.24547,0.04598,-0.03843,0.00822,0.0194,-0.00544,-0.18106,0.17174,-0.2678,9.7154,9.9637,10.87159,22.10448,60.09929
17,17,0AC2A4,2,102,2,0,1,0,1,0,0,0,0,0,0,0,0,0,2,2,2,2,2,0,0,0,0,0,1,0,0,0,0,0,0,0,1,0,0,0,0,0,0,1,0,0,0,1,0,0,5.84167,5.03412,0.53037,-0.31788,-0.00278,0.00597,0.08601,-0.00412,-0.13759,-1.81681,-0.35015,9.63601,2.60896,4.38376,-152.76879,21.26214
18,18,0AC2A4,2,105,2,0,0,1,1,0,0,0,0,0,0,0,0,0,2,2,2,2,2,0,0,0,0,0,1,0,0,0,0,0,0,0,1,0,0,0,0,0,0,1,0,0,0,1,0,0,5.97778,4.66747,0.53949,-0.39488,0.02732,0.00134,0.04686,0.00015,-0.03471,-1.84224,0.59514,9.6663,17.31354,3.54311,-197.88533,65.9782
19,19,0AC2A4,2,109,2,0,0,0,0,1,0,0,0,0,0,0,0,0,2,2,2,2,2,0,0,0,0,0,1,0,0,0,0,0,0,0,1,0,0,0,0,0,0,1,0,0,0,1,0,0,7.55,6.04556,0.686,-0.03646,0.01597,0.00944,0.05334,-0.00248,0.00035,-0.00537,-0.01229,9.68601,13.07388,8.25612,-12.79467,87.68073
20,20,0AC2A4,2,124,2,1,0,0,1,0,0,0,0,0,1,0,0,0,2,2,2,2,2,0,0,0,0,0,1,0,0,0,0,0,0,0,1,0,0,0,0,0,0,1,0,0,0,1,0,0,9.68889,8.90617,0.52754,-0.00648,-0.03124,0.0062,0.11097,-0.0051,-0.09437,0.17064,0.05415,9.63875,10.58601,9.72195,1.49865,4.60391
21,21,0AC2A4,2,135,2,0,0,0,0,0,0,0,0,0,0,0,0,1,2,2,2,2,2,0,0,0,0,0,1,0,0,0,0,0,0,0,1,0,0,0,0,0,0,1,0,0,0,1,0,0,8.36667,5.54855,1.82027,0.25853,-0.02533,0.00953,0.05127,-0.00291,-0.16282,1.52565,-0.68238,9.69795,3.55674,5.04707,128.14189,51.01807
22,22,0AC2A4,3,5,3,1,0,0,1,0,0,0,0,0,0,0,0,0,1,2,2,2,2,0,0,0,0,0,1,0,0,0,0,0,0,0,1,0,0,0,0,0,0,1,0,0,0,1,0,0,10.39722,9.30067,0.91417,-0.00657,-0.02369,0.00794,0.10638,-0.00523,-0.10867,-0.17658,-0.00437,9.68821,13.59229,10.2673,-0.82896,1.34677
23,23,0AC2A4,3,24,3,0,1,0,1,0,0,0,0,0,0,0,0,0,1,2,2,2,2,0,0,0,0,0,1,0,0,0,0,0,0,0,1,0,0,0,0,0,0,1,0,0,0,1,0,0,8.95833,7.14976,1.87134,0.07632,0.04206,0.01042,0.12868,-0.00448,-0.17254,0.44837,-0.70614,9.69434,0.44416,1.03008,-19.02338,68.8897
24,24,0AC2A4,3,30,3,0,0,1,1,0,0,0,0,0,0,0,0,0,1,2,2,2,2,0,0,0,0,0,1,0,0,0,0,0,0,0,1,0,0,0,0,0,0,1,0,0,0,1,0,0,5.075,4.2179,0.49555,0.26549,-0.00209,0.01115,0.01052,2e-05,-0.15179,1.36249,-0.00226,9.66101,8.67922,6.33142,97.63221,210.49894
25,25,0AC2A4,3,38,3,1,0,0,0,0,0,0,0,0,0,0,0,0,1,2,2,2,2,0,0,0,0,0,1,0,0,0,0,0,0,0,1,0,0,0,0,0,0,1,0,0,0,1,0,0,9.99722,7.32711,0.97647,-0.04178,-0.13231,0.00526,0.04174,-0.00391,-0.12388,-0.16125,0.26836,9.61748,20.37584,17.19638,-7.27998,93.22699
26,26,0AC2A4,3,51,3,1,0,0,0,0,0,1,0,0,0,0,0,0,1,2,2,2,2,0,0,0,0,0,1,0,0,0,0,0,0,0,1,0,0,0,0,0,0,1,0,0,0,1,0,0,13.53333,6.71212,4.73855,0.08289,-0.00786,0.00882,0.07794,-0.00519,-0.09812,0.21216,-0.03961,9.68463,12.74137,18.62632,4.86491,218.69124
27,27,0AC2A4,3,86,3,0,0,0,0,1,0,0,0,0,0,0,0,0,1,2,2,2,2,0,0,0,0,0,1,0,0,0,0,0,0,0,1,0,0,0,0,0,0,1,0,0,0,1,0,0,9.65278,7.21016,1.55139,0.06545,-0.00154,0.00953,0.02349,-0.00594,-0.18063,0.3559,-0.2398,9.76276,12.25441,12.55118,26.88575,49.73194
28,28,0AC2A4,3,98,3,0,1,0,1,0,0,0,0,0,0,0,0,0,1,2,2,2,2,0,0,0,0,0,1,0,0,0,0,0,0,0,1,0,0,0,0,0,0,1,0,0,0,1,0,0,6.2,5.44812,0.46242,-0.29759,-0.08966,0.00456,0.07911,-0.00151,-0.1576,-1.85042,-0.35046,9.66995,0.76109,1.56337,-132.29968,28.50881
29,29,0AC2A4,3,101,3,0,0,1,1,0,0,0,0,0,0,0,0,0,1,2,2,2,2,0,0,0,0,0,1,0,0,0,0,0,0,0,1,0,0,0,0,0,0,1,0,0,0,1,0,0,7.48889,5.44329,0.96545,-0.40778,0.03964,-0.00049,0.08125,0.00035,-0.02442,-2.25484,0.69396,9.61304,21.47643,3.34861,-189.62586,65.83201
30,30,0AC2A4,3,106,3,0,0,0,0,1,0,0,0,0,0,0,0,0,1,2,2,2,2,0,0,0,0,0,1,0,0,0,0,0,0,0,1,0,0,0,0,0,0,1,0,0,0,1,0,0,8.41389,6.55297,0.91958,-0.02438,0.01018,0.01069,0.05427,-0.00306,0.00966,-0.00071,0.06137,9.6366,11.61162,12.95962,-8.89888,88.36958
31,31,0AC2A4,3,119,3,1,0,0,1,0,0,0,0,0,1,0,0,0,1,2,2,2,2,0,0,0,0,0,1,0,0,0,0,0,0,0,1,0,0,0,0,0,0,1,0,0,0,1,0,0,11.03333,10.22818,0.68718,-0.00713,-0.0627,0.00646,0.08679,-0.00598,-0.09357,0.13559,0.05385,9.74537,14.99784,12.26338,1.33777,5.32284
32,32,0AC2A4,3,128,3,0,0,0,0,0,0,0,0,0,0,0,0,1,1,2,2,2,2,0,0,0,0,0,1,0,0,0,0,0,0,0,1,0,0,0,0,0,0,1,0,0,0,1,0,0,10.32778,4.85992,2.50631,0.21389,-0.00476,0.00845,0.04421,-0.00282,-0.1329,1.21475,-0.6504,9.65021,1.19559,2.34208,109.22848,85.11322
33,33,0AC2A4,6,6,6,1,0,0,1,0,0,0,0,1,0,0,0,0,1,1,1,1,2,0,0,0,0,0,0,0,1,0,0,0,0,0,1,0,0,0,0,0,0,1,0,0,0,1,0,0,16.67222,12.25882,2.61786,0.00722,0.07712,0.00867,0.09267,-0.00574,-0.11876,-0.03844,0.02107,9.57633,25.63972,24.49218,3.46664,16.54245
34,34,0AC2A4,6,21,6,0,1,0,1,0,0,0,0,0,0,1,0,0,1,1,1,1,2,0,0,0,0,0,1,0,0,0,0,0,0,0,1,0,0,0,0,0,0,1,0,0,0,1,0,0,7.49722,6.44584,0.48539,0.07417,0.11032,0.01058,0.13453,-0.0001,-0.10251,0.32699,-0.6669,9.6656,4.27338,4.43822,36.89011,139.86316
35,35,0AC2A4,6,26,6,0,0,1,1,0,0,0,1,0,0,0,0,0,1,1,1,1,2,0,0,0,0,0,1,0,0,0,0,0,0,0,1,0,0,0,0,0,0,1,0,0,0,1,0,0,10.65833,6.67962,1.91525,0.35219,-0.0831,0.00702,0.03756,0.00143,-0.21339,2.41583,0.67891,9.62225,25.16731,12.98053,152.57644,176.00004
36,36,0AC2A4,6,33,6,1,0,0,0,0,0,0,0,0,0,0,0,0,1,1,1,1,2,0,0,0,0,0,1,0,0,0,0,0,0,0,1,0,0,0,0,0,0,1,0,0,0,1,0,0,13.95833,9.77758,2.09802,-0.10684,0.00713,0.00671,0.07381,-0.0037,-0.17356,-0.60493,0.19428,9.65608,32.7268,32.13992,-39.1453,70.34952
37,37,0AC2A4,6,42,6,1,0,0,0,0,0,1,0,0,0,0,0,0,1,1,1,1,2,0,0,0,0,0,1,0,0,0,0,0,0,0,1,0,0,0,0,0,0,1,0,0,0,1,0,0,15.79445,8.52386,5.45949,0.10445,0.00543,0.00974,0.08968,-0.00441,-0.09914,0.31053,-0.28954,9.65306,20.60322,28.51677,16.74993,199.41973
38,38,0AC2A4,6,70,6,0,0,0,0,1,0,0,1,0,0,0,0,0,1,1,1,1,2,0,0,0,0,0,1,0,0,0,0,0,0,0,1,0,0,0,0,0,0,1,0,0,0,1,0,0,11.66389,5.39603,3.8462,0.05279,-0.0451,0.00828,0.01969,-0.00684,-0.08677,0.23989,0.26179,9.64382,26.11921,30.89723,27.40193,49.37131
39,39,0AC2A4,6,84,6,0,1,0,1,0,0,0,0,0,0,0,0,0,1,1,1,1,2,0,0,0,0,0,1,0,0,0,0,0,0,0,1,0,0,0,0,0,0,1,0,0,0,1,0,0,7.42222,6.46878,0.46815,-0.38443,-0.10728,0.0037,0.06394,0.0021,-0.06786,-2.76978,-0.42463,9.67788,1.96573,2.39954,-149.54395,23.20228
40,40,0AC2A4,6,87,6,0,0,1,1,0,0,0,0,0,0,0,0,0,1,1,1,1,2,0,0,0,0,0,1,0,0,0,0,0,0,0,1,0,0,0,0,0,0,1,0,0,0,1,0,0,8.75556,5.9741,1.10115,-0.41921,0.04383,0.00038,0.02747,-0.00046,0.00097,-2.36465,1.06098,9.6252,50.95981,34.61561,-180.50863,101.5201
41,41,0AC2A4,6,91,6,0,0,0,0,1,0,0,0,0,0,0,0,0,1,1,1,1,2,0,0,0,0,0,1,0,0,0,0,0,0,0,1,0,0,0,0,0,0,1,0,0,0,1,0,0,11.05556,8.62846,1.31173,-0.05678,0.06897,0.01338,0.0311,0.0,-0.01792,-0.201,0.29972,9.5721,22.10377,21.51477,-21.09195,86.79097
42,42,0AC2A4,6,100,6,1,0,0,1,0,0,0,0,1,1,0,0,0,1,1,1,1,2,0,0,0,0,0,1,0,0,0,0,0,0,0,1,0,0,0,0,0,0,1,0,0,0,1,0,0,12.17778,9.70834,1.9919,0.01147,-0.05093,0.00526,0.07894,-0.00545,-0.03336,0.47776,-0.03021,9.60654,30.60893,33.07333,4.65673,15.03377
43,43,0AC2A4,6,110,6,0,0,0,0,0,0,0,0,0,0,0,0,1,1,1,1,1,2,0,0,0,0,0,1,0,0,0,0,0,0,0,1,0,0,0,0,0,0,1,0,0,0,1,0,0,12.06667,7.38581,2.90173,0.33029,-0.03893,0.00912,0.05124,0.00292,-0.09094,2.89035,-1.35006,9.54947,4.64277,9.23369,117.76923,62.25891
44,44,0AC2A4,7,4,7,1,0,0,1,0,0,0,0,0,0,0,0,0,1,2,2,2,1,0,0,0,0,0,1,0,0,0,0,0,0,0,1,0,0,0,0,0,0,1,0,0,0,1,0,0,11.52222,9.69884,1.73261,-0.00422,-0.03591,0.00811,0.11227,-0.00579,-0.09948,-0.15454,0.08325,9.64905,16.15219,11.45101,1.08035,5.45024
45,45,0AC2A4,7,23,7,0,1,0,1,0,0,0,0,0,0,0,0,0,1,2,2,2,1,0,0,0,0,0,1,0,0,0,0,0,0,0,1,0,0,0,0,0,0,1,0,0,0,1,0,0,7.33889,6.34964,0.63264,0.06624,0.05852,0.00975,0.17645,-0.00383,-0.11915,0.39998,-0.59446,9.62859,1.00853,1.63941,26.36526,80.92173
46,46,0AC2A4,7,28,7,0,0,1,1,0,0,0,0,0,0,0,0,0,1,2,2,2,1,0,0,0,0,0,1,0,0,0,0,0,0,0,1,0,0,0,0,0,0,1,0,0,0,1,0,0,6.19722,4.4626,0.5958,0.28037,0.00273,0.00818,0.08229,-0.00224,-0.18187,1.49649,-0.00367,9.64933,9.84334,6.81212,155.6194,194.81402
47,47,0AC2A4,7,37,7,1,0,0,0,0,0,0,0,0,0,0,1,0,1,2,2,2,1,0,0,0,0,0,1,0,0,0,0,0,0,0,1,0,0,0,0,0,0,1,0,0,0,1,0,0,7.70556,5.48457,2.34794,-0.05235,-0.0071,0.00735,0.093,-0.00386,-0.12166,-0.20311,-0.14542,9.66498,12.90273,11.05828,-19.62165,57.71449
48,48,0AC2A4,7,54,7,1,0,0,0,0,0,1,0,0,0,0,0,0,1,2,2,2,1,0,0,0,0,0,1,0,0,0,0,0,0,0,1,0,0,0,0,0,0,1,0,0,0,1,0,0,11.94167,6.69357,3.92647,0.08293,-0.00246,0.00961,0.08487,-0.00499,-0.08424,0.2547,0.08776,9.65611,15.03553,17.86005,38.06885,184.97571
49,49,0AC2A4,7,89,7,0,0,0,0,1,0,0,0,0,0,0,0,0,1,2,2,2,1,0,0,0,0,0,1,0,0,0,0,0,0,0,1,0,0,0,0,0,0,1,0,0,0,1,0,0,9.13056,7.21345,1.35746,0.07322,-0.07131,0.00815,0.06545,-0.00758,-0.19228,0.41204,-0.01935,9.60193,14.07438,11.16589,33.71861,51.57269
50,50,0AC2A4,7,100,7,0,1,0,1,0,0,0,0,0,0,0,0,0,1,2,2,2,1,0,0,0,0,0,1,0,0,0,0,0,0,0,1,0,0,0,0,0,0,1,0,0,0,1,0,0,6.25,5.76052,0.14274,-0.34632,-0.12787,0.0029,0.1076,-0.00305,-0.13654,-2.29367,-0.08034,9.67371,11.45541,4.09327,-145.38243,23.6184
51,51,0AC2A4,7,103,7,0,0,1,1,0,0,0,0,0,0,0,0,0,1,2,2,2,1,0,0,0,0,0,1,0,0,0,0,0,0,0,1,0,0,0,0,0,0,1,0,0,0,1,0,0,7.36667,5.72144,0.58904,-0.45076,0.04833,0.00123,0.09303,0.00174,0.01803,-2.61555,0.5781,9.61869,21.97211,11.4914,-193.72716,55.76091
52,52,0AC2A4,7,107,7,0,0,0,0,1,0,0,0,0,0,0,0,0,1,2,2,2,1,0,0,0,0,0,1,0,0,0,0,0,0,0,1,0,0,0,0,0,0,1,0,0,0,1,0,0,8.675,6.62544,1.13516,-0.03465,-0.0111,0.01042,0.01289,-0.00231,0.00499,-0.04216,0.0706,9.59334,13.66684,14.16359,-7.3752,89.08882
53,53,0AC2A4,7,120,7,1,0,0,1,0,0,0,0,0,1,0,0,0,1,2,2,2,1,0,0,0,0,0,1,0,0,0,0,0,0,0,1,0,0,0,0,0,0,1,0,0,0,1,0,0,11.78056,10.61401,0.88509,-0.00356,0.00321,0.00699,0.04302,-0.00656,-0.07473,0.20537,0.04068,9.75274,13.75751,16.1346,1.78724,6.46189
54,54,0AC2A4,7,129,7,0,0,0,0,0,0,0,0,0,0,0,0,1,1,2,2,2,1,0,0,0,0,0,1,0,0,0,0,0,0,0,1,0,0,0,0,0,0,1,0,0,0,1,0,0,10.23333,5.94369,2.54056,0.25172,-0.00894,0.00864,0.02979,-0.00126,-0.11146,1.84754,-0.94998,9.60279,2.18221,4.101,102.53603,66.89225
253,253,6B11F5,1,11,1,0,0,1,0,0,0,0,0,0,0,0,0,2,2,2,2,2,1,0,0,0,0,0,1,0,0,0,0,0,0,0,1,0,0,0,0,0,0,1,0,0,0,1,0,0,13.75,11.80887,1.61894,-0.00184,0.05738,0.00841,0.08218,-0.00942,-0.15261,-0.10805,-0.27141,9.45147,17.88445,30.49855,0.89893,6.53586
254,254,6B11F5,1,24,0,1,0,1,0,0,0,0,0,0,0,0,0,2,2,2,2,2,1,0,0,0,0,0,1,0,0,0,0,0,0,0,1,0,0,0,0,0,0,1,0,0,0,1,0,0,7.74444,5.15189,1.49786,0.05358,0.0461,0.00844,0.06465,-0.00848,-0.23333,0.45833,-0.82576,9.48481,2.4979,3.54834,14.55779,110.00933
255,255,6B11F5,1,30,0,0,1,1,0,0,0,0,0,0,0,0,0,2,2,2,2,2,1,0,0,0,0,0,1,0,0,0,0,0,0,0,1,0,0,0,0,0,0,1,0,0,0,1,0,0,4.49722,3.81688,0.23164,0.34758,-0.11752,0.00951,0.01403,-0.00152,-0.09362,1.46861,-0.28696,9.46622,8.68928,6.74136,207.29075,223.76797
256,256,6B11F5,1,36,1,0,0,0,0,0,0,0,0,0,0,0,0,2,2,2,2,2,1,0,0,0,0,0,1,0,0,0,0,0,0,0,1,0,0,0,0,0,0,1,0,0,0,1,0,0,8.17222,6.31777,1.09008,-0.02176,0.00753,0.00719,0.07954,-0.00941,-0.06725,0.08458,0.04556,9.47218,13.4637,11.03931,-11.87405,79.49974
257,257,6B11F5,1,51,1,0,0,0,0,1,0,0,0,0,0,0,0,2,2,2,2,2,1,0,0,0,0,0,1,0,0,0,0,0,0,0,1,0,0,0,0,0,0,1,0,0,0,0,0,1,11.55,6.5433,3.90495,0.07509,0.00069,0.00871,0.07989,-0.00906,-0.11266,0.21052,-0.27491,9.48288,14.90383,20.89272,27.61341,192.8058
258,258,6B11F5,1,90,0,0,0,0,1,0,0,0,0,0,0,0,0,2,2,2,2,2,1,0,0,0,0,0,1,0,0,0,0,0,0,0,1,0,0,0,0,0,0,1,0,0,0,1,0,0,7.81667,4.07001,1.72412,0.10402,-0.02606,0.01038,0.01591,-0.01056,-0.17591,0.46216,0.39432,9.45828,29.08972,23.93096,57.15801,65.75295
259,259,6B11F5,1,98,0,1,0,1,0,0,0,0,0,0,0,0,0,2,2,2,2,2,1,0,0,0,0,0,1,0,0,0,0,0,0,0,1,0,0,0,0,0,0,1,0,0,0,1,0,0,9.33056,6.48401,2.12245,-0.13708,-0.0452,0.00556,0.03277,-0.00721,-0.18404,-0.79191,-0.63988,9.45421,3.77812,10.25565,-81.00749,90.01999
260,260,6B11F5,1,107,0,0,1,1,0,0,0,0,0,0,0,0,0,2,2,2,2,2,1,0,0,0,0,0,1,0,0,0,0,0,0,0,1,0,0,0,0,0,0,1,0,0,0,1,0,0,4.98611,3.81432,0.46519,-0.33964,0.02156,0.00401,0.12719,-0.00535,-0.04672,-1.32704,0.4649,9.40899,17.14099,14.03228,-208.38344,60.11591
261,261,6B11F5,1,111,0,0,0,0,1,0,0,0,0,0,0,0,0,2,2,2,2,2,1,0,0,0,0,0,1,0,0,0,0,0,0,0,1,0,0,0,0,0,0,1,0,0,0,0,0,1,9.64167,5.73595,1.68085,-0.03478,0.00993,0.00785,0.13842,-0.00749,-0.0029,-0.0603,-0.04592,9.49641,18.55328,20.32962,-11.15508,90.84195
262,262,6B11F5,1,130,1,0,0,1,0,0,0,0,0,1,0,0,0,2,2,2,2,2,1,0,0,0,0,0,1,0,0,0,0,0,0,0,1,0,0,0,0,0,0,1,0,0,0,1,0,0,13.15556,10.21934,2.04063,0.05083,0.05419,0.00939,0.18333,-0.0081,-0.22281,0.57508,-0.66915,9.4366,20.49361,27.80409,19.77658,40.44094
263,263,6B11F5,1,140,0,0,0,0,0,0,0,0,0,0,0,0,1,2,2,2,2,2,1,0,0,0,0,0,1,0,0,0,0,0,0,0,1,0,0,0,0,0,0,1,0,0,0,1,0,0,6.38611,4.69564,2.17778,0.25608,-0.05159,0.00774,-0.12136,-0.00699,-0.11454,1.64744,-0.83106,9.44327,6.42919,6.71408,110.69432,61.19163
264,264,6B11F5,2,11,1,0,0,1,0,0,0,0,0,0,0,0,0,2,2,2,2,2,1,0,0,0,0,0,1,0,0,0,0,0,0,0,1,0,0,0,0,0,0,1,0,0,0,1,0,0,13.18333,11.57052,1.67252,0.0173,0.05017,0.00824,0.11219,-0.00891,-0.19421,-0.00267,-0.47782,9.51779,11.30356,11.48247,7.38028,21.14367
265,265,6B11F5,2,24,0,1,0,1,0,0,0,0,0,0,0,0,0,2,2,2,2,2,1,0,0,0,0,0,1,0,0,0,0,0,0,0,1,0,0,0,0,0,0,1,0,0,0,1,0,0,6.87778,4.45798,0.95039,0.10475,0.06654,0.00964,0.06189,-0.0073,-0.25544,0.51136,-0.70779,9.45885,3.93328,3.8563,50.1744,172.12461
266,266,6B11F5,2,30,0,0,1,1,0,0,0,0,0,0,0,0,0,2,2,2,2,2,1,0,0,0,0,0,1,0,0,0,0,0,0,0,1,0,0,0,0,0,0,1,0,0,0,1,0,0,4.27222,3.77385,0.22423,0.43771,-0.24151,0.00636,-0.0027,-0.00332,-0.08026,1.86559,-0.27594,9.49491,8.13936,6.18152,270.74443,184.68984
267,267,6B11F5,2,34,1,0,0,0,0,0,0,0,0,0,0,0,0,2,2,2,2,2,1,0,0,0,0,0,1,0,0,0,0,0,0,0,1,0,0,0,0,0,0,1,0,0,0,1,0,0,9.64444,6.68512,1.31601,-0.03701,0.04378,0.00696,0.09,-0.00827,-0.0618,0.05668,0.10821,9.48542,23.62768,25.39704,-21.12618,91.64142
268,268,6B11F5,2,49,1,0,0,0,0,1,0,0,0,0,0,0,0,2,2,2,2,2,1,0,0,0,0,0,1,0,0,0,0,0,0,0,1,0,0,0,0,0,0,1,0,0,0,1,0,0,12.72778,7.08178,4.30055,0.08479,0.00547,0.00909,0.08356,-0.00809,-0.09317,0.25584,-0.2899,9.46752,19.9217,27.28055,32.20577,196.1022
269,269,6B11F5,2,84,0,0,0,0,1,0,0,0,0,0,0,0,0,2,2,2,2,2,1,0,0,0,0,0,1,0,0,0,0,0,0,0,1,0,0,0,0,0,0,1,0,0,0,1,0,0,7.24722,4.27974,1.51693,0.11765,0.00245,0.01012,0.02594,-0.01411,-0.18498,0.55321,0.06288,9.466,26.7756,25.67466,58.95665,59.44968
270,270,6B11F5,2,91,0,1,0,1,0,0,0,0,0,0,0,0,0,2,2,2,2,2,1,0,0,0,0,0,1,0,0,0,0,0,0,0,1,0,0,0,0,0,0,1,0,0,0,1,0,0,10.31944,7.0617,2.15,-0.12597,-0.07052,0.00551,0.02054,-0.00765,-0.19565,-0.7342,-0.58661,9.4689,9.74747,20.97249,-65.21442,80.78264
271,271,6B11F5,2,100,0,0,1,1,0,0,0,0,0,0,0,0,0,2,2,2,2,2,1,0,0,0,0,0,1,0,0,0,0,0,0,0,1,0,0,0,0,0,0,1,0,0,0,1,0,0,4.42778,4.00778,0.18539,-0.41375,-0.08974,-0.00117,0.14223,-0.00549,-0.06913,-1.70647,0.29995,9.44814,29.66209,16.68952,-238.12658,23.19679
272,272,6B11F5,2,102,0,0,0,0,1,0,0,0,0,0,0,0,0,2,2,2,2,2,1,0,0,0,0,0,1,0,0,0,0,0,0,0,1,0,0,0,0,0,0,1,0,0,0,1,0,0,10.05833,5.92047,1.88444,-0.06736,0.03248,0.00783,0.10035,-0.00665,0.01107,-0.27754,0.20574,9.39192,26.4304,28.93757,-26.01856,101.95131
273,273,6B11F5,2,121,1,0,0,1,0,0,0,0,0,1,0,0,0,2,2,2,2,2,1,0,0,0,0,0,1,0,0,0,0,0,0,0,1,0,0,0,0,0,0,1,0,0,0,1,0,0,12.81667,9.85028,2.06952,0.14584,0.04886,0.01072,0.11242,-0.0065,-0.18173,1.34023,-0.50847,9.51771,10.96415,13.57638,54.61141,68.7929
274,274,6B11F5,2,134,0,0,0,0,0,0,0,0,0,0,0,0,1,2,2,2,2,2,1,0,0,0,0,0,1,0,0,0,0,0,0,0,1,0,0,0,0,0,0,1,0,0,0,1,0,0,7.22222,4.24859,2.45802,0.20513,-0.0975,0.00336,-0.14876,-0.00586,-0.01349,1.30389,-1.50059,9.48591,0.07374,0.61238,84.47049,68.39968
275,275,6B11F5,3,11,1,0,0,1,0,0,0,0,0,0,0,0,0,1,2,2,2,2,1,0,0,0,0,0,1,0,0,0,0,0,0,0,1,0,0,0,0,0,0,1,0,0,0,1,0,0,14.17778,11.97269,1.81417,0.00947,0.05218,0.00854,0.10174,-0.00938,-0.19466,-0.05486,-0.41784,9.43199,13.07518,23.41256,5.32873,17.60958
276,276,6B11F5,3,23,0,1,0,1,0,0,0,0,0,0,0,0,0,1,2,2,2,2,1,0,0,0,0,0,1,0,0,0,0,0,0,0,1,0,0,0,0,0,0,1,0,0,0,1,0,0,7.16111,4.72235,1.1295,0.15337,0.08467,0.01046,0.0554,-0.00584,-0.26657,0.72448,-0.70855,9.42179,3.2983,3.47021,74.54997,159.89164
277,277,6B11F5,3,30,0,0,1,1,0,0,0,0,0,0,0,0,0,1,2,2,2,2,1,0,0,0,0,0,1,0,0,0,0,0,0,0,1,0,0,0,0,0,0,1,0,0,0,1,0,0,5.18889,4.09024,0.34069,0.29546,-0.24314,0.00768,-0.00028,-0.00333,-0.05989,1.31022,0.05775,9.43493,13.24015,7.68949,181.6879,236.45158
278,278,6B11F5,3,34,1,0,0,0,0,0,0,0,0,0,0,0,0,1,2,2,2,2,1,0,0,0,0,0,1,0,0,0,0,0,0,0,1,0,0,0,0,0,0,1,0,0,0,1,0,0,10.48611,7.67331,1.53936,-0.02309,0.04781,0.00662,0.08679,-0.00833,-0.06105,0.12415,0.20032,9.42224,23.2329,21.35596,-9.66593,78.45883
279,279,6B11F5,3,47,1,0,0,0,0,1,0,0,0,0,0,0,0,1,2,2,2,2,1,0,0,0,0,0,1,0,0,0,0,0,0,0,1,0,0,0,0,0,0,1,0,0,0,1,0,0,12.70556,7.15836,4.43479,0.0874,-0.01032,0.00928,0.09652,-0.00829,-0.0988,0.24779,-0.30714,9.46814,18.17884,25.589,24.99124,201.86725
280,280,6B11F5,3,81,0,0,0,0,1,0,0,0,0,0,0,0,0,1,2,2,2,2,1,0,0,0,0,0,1,0,0,0,0,0,0,0,1,0,0,0,0,0,0,1,0,0,0,1,0,0,6.57778,4.05194,1.60051,0.11384,0.01822,0.0106,0.03816,-0.01464,-0.18328,0.53594,-0.05101,9.45118,29.31225,27.78634,59.57671,56.87787
281,281,6B11F5,3,88,0,1,0,1,0,0,0,0,0,0,0,0,0,1,2,2,2,2,1,0,0,0,0,0,1,0,0,0,0,0,0,0,1,0,0,0,0,0,0,1,0,0,0,1,0,0,10.38889,7.28952,2.06726,-0.10287,-0.09143,0.0048,0.0077,-0.00655,-0.19078,-0.64457,-0.38845,9.46366,13.2057,25.98198,-52.83862,71.71206
282,282,6B11F5,3,97,0,0,1,1,0,0,0,0,0,0,0,0,0,1,2,2,2,2,1,0,0,0,0,0,1,0,0,0,0,0,0,0,1,0,0,0,0,0,0,1,0,0,0,1,0,0,4.575,3.80218,0.33032,-0.39237,-0.03289,0.00346,0.13443,-0.00802,-0.06532,-1.53949,0.31189,9.47419,24.78437,13.54575,-240.13676,6.48197
283,283,6B11F5,3,100,0,0,0,0,1,0,0,0,0,0,0,0,0,1,2,2,2,2,1,0,0,0,0,0,1,0,0,0,0,0,0,0,1,0,0,0,0,0,0,1,0,0,0,1,0,0,9.96667,5.58337,1.83913,-0.0574,0.02659,0.00795,0.12045,-0.00826,0.01482,-0.17541,0.16187,9.38198,27.04033,31.2384,-22.24027,96.3638
284,284,6B11F5,3,119,1,0,0,1,0,0,0,0,0,1,0,0,0,1,2,2,2,2,1,0,0,0,0,0,1,0,0,0,0,0,0,0,1,0,0,0,0,0,0,1,0,0,0,1,0,0,13.68333,11.45444,1.45449,0.0168,0.05155,0.00914,0.13593,-0.0072,-0.19089,0.39324,-0.35838,9.4487,17.6502,22.70716,6.28769,18.69107
285,285,6B11F5,3,128,0,0,0,0,0,0,0,0,0,0,0,0,1,1,2,2,2,2,1,0,0,0,0,0,1,0,0,0,0,0,0,0,1,0,0,0,0,0,0,1,0,0,0,1,0,0,8.18611,5.26565,2.57781,0.26623,-0.03462,0.00793,-0.08217,-0.00422,-0.08131,2.00799,-0.91304,9.43484,3.69442,5.68145,99.23688,67.59602
286,286,6B11F5,4,19,1,0,0,1,0,0,0,0,0,0,0,0,0,1,1,2,2,2,1,0,0,0,0,0,1,0,0,0,0,0,0,0,1,0,0,0,0,0,0,1,0,0,0,1,0,0,13.56667,11.10474,1.90495,-0.00041,0.02735,0.00788,0.129,-0.00978,-0.20674,-0.15419,-0.66631,9.41568,16.69778,24.4245,1.42793,8.58767
287,287,6B11F5,4,32,0,1,0,1,0,0,0,1,1,0,0,0,0,1,1,2,2,2,1,0,0,0,0,0,1,0,0,0,0,0,0,0,1,0,0,0,0,0,0,1,0,0,0,1,0,0,5.81944,2.55683,1.44359,0.03761,0.03091,0.00858,0.03398,-0.00953,-0.12119,0.01118,-0.40538,9.46926,6.70413,10.08456,46.29304,106.72519
288,288,6B11F5,4,45,0,0,1,1,0,0,0,0,0,0,0,0,0,1,1,2,2,2,1,0,0,0,0,0,1,0,0,0,0,0,0,0,1,0,0,0,0,0,0,1,0,0,0,1,0,0,3.73333,3.58956,0.0829,0.42742,-0.18629,0.00955,0.01465,-0.00267,-0.10764,1.74886,-0.31162,9.45831,5.99127,2.76275,275.49632,174.09356
289,289,6B11F5,4,50,1,0,0,0,0,0,0,0,0,0,0,0,0,1,1,2,2,2,1,0,0,0,0,0,1,0,0,0,0,0,0,0,1,0,0,0,0,0,0,1,0,0,0,1,0,0,9.46111,6.65258,1.55244,-0.03821,0.01685,0.00743,0.06862,-0.00871,-0.10993,0.03901,0.16871,9.46712,21.10115,18.24599,-22.25285,101.06701
290,290,6B11F5,4,65,1,0,0,0,0,1,0,0,0,0,0,0,0,1,1,2,2,2,1,0,0,0,0,0,1,0,0,0,0,0,0,0,1,0,0,0,0,0,0,1,0,0,0,1,0,0,11.94722,6.06168,4.33275,0.07134,0.00454,0.00913,0.08681,-0.00875,-0.11326,0.2017,-0.3016,9.44843,11.44089,20.51764,33.2859,196.22844
291,291,6B11F5,4,106,0,0,0,0,1,0,0,1,0,0,0,0,0,1,1,2,2,2,1,0,0,0,0,0,1,0,0,0,0,0,0,0,1,0,0,0,0,0,0,1,0,0,0,1,0,0,7.15,3.33524,1.92224,0.08926,0.02435,0.00942,0.00859,-0.01238,-0.15542,0.41587,0.38811,9.47808,29.34214,25.31404,49.03653,54.9517
292,292,6B11F5,4,115,0,1,0,1,0,0,0,0,0,0,0,0,0,1,1,2,2,2,1,0,0,0,0,0,1,0,0,0,0,0,0,0,1,0,0,0,0,0,0,1,0,0,0,1,0,0,10.05833,7.47611,1.87148,-0.10566,-0.05218,0.00481,-0.00253,-0.00655,-0.18238,-0.68481,-0.50334,9.40209,10.48782,21.78394,-47.4908,65.6463
293,293,6B11F5,4,123,0,0,1,1,0,0,0,0,1,0,0,0,0,1,1,2,2,2,1,0,0,0,0,0,1,0,0,0,0,0,0,0,1,0,0,0,0,0,0,1,0,0,0,1,0,0,4.65556,4.15052,0.21545,-0.4212,-0.06176,0.00227,0.1563,-0.00615,-0.06931,-1.89007,0.10608,9.41817,16.09288,18.89017,-237.32297,14.06145
294,294,6B11F5,4,126,0,0,0,0,1,0,0,0,0,0,0,0,0,1,1,2,2,2,1,0,0,0,0,0,1,0,0,0,0,0,0,0,1,0,0,0,0,0,0,1,0,0,0,1,0,0,9.40833,5.86545,1.60771,-0.06298,0.01216,0.00787,0.1347,-0.00842,0.03686,-0.23878,-0.05028,9.44132,22.75255,26.36524,-21.74647,97.90191
295,295,6B11F5,4,144,1,0,0,1,0,0,0,0,0,1,0,0,0,1,1,2,2,2,1,0,0,0,0,0,1,0,0,0,0,0,0,0,1,0,0,0,0,0,0,1,0,0,0,1,0,0,13.725,10.59406,2.16188,0.0779,0.01212,0.00981,0.19783,-0.0055,-0.19385,0.81841,-0.4026,9.40553,17.98652,24.30888,27.8482,49.69567
296,296,6B11F5,4,155,0,0,0,0,0,0,0,0,0,0,0,0,1,1,1,2,2,2,1,0,0,0,0,0,1,0,0,0,0,0,0,0,1,0,0,0,0,0,0,1,0,0,0,1,0,0,7.2,5.07806,2.28415,0.25181,-0.04047,0.00711,-0.15864,-0.00614,-0.08635,1.76181,-0.94511,9.4596,5.04872,8.05765,96.60005,67.33499
297,297,6B11F5,5,13,1,0,0,1,0,0,0,0,0,0,0,0,0,1,2,1,2,2,1,0,0,0,0,0,1,0,0,0,0,0,0,0,1,0,0,0,0,0,0,1,0,0,0,1,0,0,17.56389,15.26652,2.13702,0.01545,-0.00306,0.00847,0.09421,-0.00747,-0.16687,0.00596,-0.72883,9.55352,20.1207,29.95329,5.85531,17.16975
298,298,6B11F5,5,23,0,1,0,1,0,0,0,0,0,0,0,0,0,1,2,1,2,2,1,0,0,0,0,0,1,0,0,0,0,0,0,0,1,0,0,0,0,0,0,1,0,0,0,1,0,0,8.81389,6.69361,1.32531,0.05002,0.05254,0.01027,0.06347,-0.00629,-0.24261,0.35738,-1.27209,9.4833,0.7611,3.22869,22.14809,112.68576
299,299,6B11F5,5,27,0,0,1,1,0,0,0,0,0,0,0,0,0,1,2,1,2,2,1,0,0,0,0,0,1,0,0,0,0,0,0,0,1,0,0,0,0,0,0,1,0,0,0,1,0,0,6.60556,5.20441,0.59642,0.54385,-0.2044,0.0063,-0.08905,0.00643,-0.10822,2.93727,0.31193,9.38341,20.42845,8.03466,257.84361,189.26505
300,300,6B11F5,5,31,1,0,0,0,0,0,0,0,0,0,0,0,0,1,2,1,2,2,1,0,0,0,0,0,1,0,0,0,0,0,0,0,1,0,0,0,0,0,0,1,0,0,0,1,0,0,12.22778,9.42682,1.75644,-0.04184,-0.00212,0.00651,-0.07842,-0.00679,-0.02104,-0.08198,0.24101,9.43689,32.70013,29.37632,-10.09056,73.54038
301,301,6B11F5,5,41,1,0,0,0,0,1,0,0,0,0,0,0,0,1,2,1,2,2,1,0,0,0,0,0,1,0,0,0,0,0,0,0,1,0,0,0,0,0,0,1,0,0,0,1,0,0,16.625,9.20369,5.54113,0.11144,0.00209,0.00978,0.02264,-0.00754,-0.12656,0.41614,-0.13642,9.43985,27.06578,33.4081,22.05599,194.52913
302,302,6B11F5,5,68,0,0,0,0,1,0,0,0,0,0,0,0,0,1,2,1,2,2,1,0,0,0,0,0,1,0,0,0,0,0,0,0,1,0,0,0,0,0,0,1,0,0,0,1,0,0,10.975,8.08121,1.237,0.20787,-0.00269,0.01326,0.01743,-0.01375,-0.20277,1.82204,0.49119,9.58725,61.6415,39.1752,68.15791,54.96233
303,303,6B11F5,5,72,0,1,0,1,0,0,0,0,0,0,0,0,0,1,2,1,2,2,1,0,0,0,0,0,1,0,0,0,0,0,0,0,1,0,0,0,0,0,0,1,0,0,0,1,0,0,13.66944,10.16649,2.4984,-0.1323,-0.12101,0.00185,-0.05285,-0.00527,-0.13044,-1.22377,-1.38501,9.55014,11.67964,25.71686,-47.03304,60.79526
304,304,6B11F5,5,78,0,0,1,1,0,0,0,0,0,0,0,0,0,1,2,1,2,2,1,0,0,0,0,0,1,0,0,0,0,0,0,0,1,0,0,0,0,0,0,1,0,0,0,1,0,0,6.31111,5.86301,0.18337,-0.58546,-0.0915,-0.00066,0.00786,0.00423,-0.08922,-3.66367,0.0921,9.34215,33.43816,29.05447,-242.13647,28.49445
305,305,6B11F5,5,80,0,0,0,0,1,0,0,0,0,0,0,0,0,1,2,1,2,2,1,0,0,0,0,0,1,0,0,0,0,0,0,0,1,0,0,0,0,0,0,1,0,0,0,1,0,0,11.45833,8.74213,1.26901,-0.11808,0.08339,0.01004,0.09072,-0.00381,-0.04279,-0.77985,0.19098,9.48331,38.06585,38.68369,-37.01668,100.55325
306,306,6B11F5,5,91,1,0,0,1,0,0,0,0,0,1,0,0,0,1,2,1,1,2,1,0,0,0,0,0,1,0,0,0,0,0,0,0,1,0,0,0,0,0,0,1,0,0,0,1,0,0,17.28889,13.46463,2.59423,0.06453,0.03251,0.00868,0.13562,-0.00515,-0.15151,0.907,-0.22472,9.47906,31.93885,39.15325,21.01381,37.69918
307,307,6B11F5,5,100,0,0,0,0,0,0,0,0,0,0,0,0,1,1,2,1,2,2,1,0,0,0,0,0,1,0,0,0,0,0,0,0,1,0,0,0,0,0,0,1,0,0,0,1,0,0,9.46111,7.17106,2.4889,0.36745,-0.02709,0.00557,-0.05631,0.00151,-0.14381,3.41884,-1.36621,9.38841,21.7816,25.48376,116.44398,67.16763
308,308,6B11F5,6,13,1,0,0,1,0,0,0,0,1,0,0,0,0,1,1,1,1,2,1,0,0,0,0,0,0,0,0,0,0,0,1,0,0,0,0,0,0,1,0,1,0,0,0,1,0,0,16.26944,9.43019,5.25677,0.0038,0.03589,0.00785,0.06217,-0.01021,-0.15153,-0.07537,0.09172,9.43905,37.13338,41.3434,4.35302,15.40547
309,309,6B11F5,6,28,0,1,0,1,0,0,0,0,0,0,1,0,0,1,1,1,1,2,1,0,0,0,0,0,1,0,0,0,0,0,0,0,1,0,0,0,0,0,0,1,0,0,0,1,0,0,5.91111,5.31807,0.31538,0.05715,0.10169,0.00922,0.05001,-0.00317,-0.23137,0.29707,-0.33616,9.4777,8.15013,13.35801,27.71471,174.03868
310,310,6B11F5,6,34,0,0,1,1,0,0,0,1,0,0,0,0,0,1,1,1,1,2,1,0,0,0,0,0,1,0,0,0,0,0,0,0,1,0,0,0,0,0,0,1,0,0,0,1,0,0,8.07222,5.4821,0.9804,0.51521,-0.25293,0.0071,-0.05337,-0.00109,-0.12632,2.80025,0.49666,9.36818,42.097,29.28982,242.28714,186.11918
311,311,6B11F5,6,38,1,0,0,0,0,0,0,0,0,0,0,0,0,1,1,1,1,2,1,0,0,0,0,0,1,0,0,0,0,0,0,0,1,0,0,0,0,0,0,1,0,0,0,1,0,0,13.23611,10.17724,1.96165,-0.03819,-0.0003,0.00658,-0.0212,-0.00622,-0.06334,0.0437,0.14911,9.44194,46.45144,39.15101,-14.43631,74.18157
312,312,6B11F5,6,48,1,0,0,0,0,1,0,0,0,0,0,0,0,1,1,1,1,2,1,0,0,0,0,0,1,0,0,0,0,0,0,0,1,0,0,0,0,0,0,1,0,0,0,1,0,0,17.475,9.31717,5.71819,0.11658,-0.00798,0.00894,0.02141,-0.00664,-0.13707,0.41736,-0.396,9.44391,29.0305,38.88929,27.41009,193.95412
313,313,6B11F5,6,74,0,0,0,0,1,0,0,1,0,0,0,0,0,1,1,1,1,2,1,0,0,0,0,0,1,0,0,0,0,0,0,0,1,0,0,0,0,0,0,1,0,0,0,1,0,0,11.33056,3.41285,3.50286,0.06665,0.00097,0.00934,3e-05,-0.01181,-0.09472,0.38323,0.45792,9.4554,41.28766,41.16859,29.38717,58.63449
314,314,6B11F5,6,86,0,1,0,1,0,0,0,0,0,0,0,0,0,1,1,1,1,2,1,0,0,0,0,0,1,0,0,0,0,0,0,0,1,0,0,0,0,0,0,1,0,0,0,1,0,0,12.59167,9.62752,2.19366,-0.18784,-0.15978,0.00057,0.00681,-0.00203,-0.13091,-1.60953,-1.30973,9.43019,5.82463,19.37051,-63.70827,69.76657
315,315,6B11F5,6,91,0,0,1,1,0,0,0,0,0,0,0,0,0,1,1,1,1,2,1,0,0,1,0,1,0,0,0,0,0,1,0,0,1,0,0,0,0,0,0,1,0,0,0,1,0,0,7.37778,5.93422,0.52196,-0.55568,0.078,0.00539,0.09364,0.00037,-0.02672,-3.4792,0.65019,9.29957,54.64642,42.07281,-228.34104,61.22689
316,316,6B11F5,6,94,0,0,0,0,1,0,0,0,0,0,0,0,0,1,1,1,1,2,1,0,0,0,0,0,1,0,0,0,0,0,0,0,1,0,0,0,0,0,0,1,0,0,0,1,0,0,12.01944,9.20972,1.43256,-0.05504,0.0052,0.00723,0.06834,-0.00555,0.01478,-0.16121,0.11991,9.50263,32.27242,34.94819,-17.13261,80.26071
317,317,6B11F5,6,105,1,0,0,1,0,0,0,0,1,1,0,0,0,1,1,1,1,2,1,0,0,0,0,0,1,0,0,0,0,0,0,0,1,0,0,0,0,0,0,1,0,0,0,1,0,0,13.06667,9.69983,1.91984,0.15996,0.01845,0.01107,0.08748,-0.00284,-0.10222,1.73027,-0.43669,9.42681,35.28293,41.20001,49.94546,73.22091
318,318,6B11F5,6,119,0,0,0,0,0,0,0,0,0,0,0,0,1,1,1,1,1,2,1,0,0,0,0,0,1,0,0,0,0,0,0,0,1,0,0,0,0,0,0,1,0,0,0,0,0,0,9.19722,4.99522,3.39419,0.19403,-0.0807,-0.00238,-0.08074,-0.00445,-0.06773,1.57762,-2.46193,9.49154,4.84744,18.90149,63.38642,57.41725
